[{"boulder":32,"lat":33.9294,"lon":-86.249,"sport":0,"title":"Deck Area\/Front Slabs","total":32,"trad":0},{"boulder":3,"lat":33.9294,"lon":-86.249,"sport":0,"title":"Hang Loose Area","total":3,"trad":0},{"boulder":1,"lat":33.92026,"lon":-86.30872,"sport":0,"title":"HP Canyon","total":1,"trad":0},{"boulder":4,"lat":33.9294,"lon":-86.249,"sport":0,"title":"Kiss boulders","total":4,"trad":0},{"boulder":9,"lat":33.9294,"lon":-86.249,"sport":0,"title":"Mortal Combat Area\/ Light Post Boulders","total":9,"trad":0},{"boulder":13,"lat":33.9294,"lon":-86.249,"sport":0,"title":"Mortal Combat Area\/ Mortal Combat boulders","total":13,"trad":0},{"boulder":14,"lat":33.9294,"lon":-86.249,"sport":0,"title":"Mulletino Boulder.","total":14,"trad":0},{"boulder":10,"lat":33.9294,"lon":-86.249,"sport":0,"title":"Slider Boulders","total":10,"trad":0},{"boulder":15,"lat":33.9294,"lon":-86.249,"sport":0,"title":"Spirit Area","total":15,"trad":0},{"boulder":8,"lat":33.9294,"lon":-86.249,"sport":0,"title":"Supa Coola Area","total":8,"trad":0},{"boulder":3,"lat":33.9294,"lon":-86.249,"sport":0,"title":"Supa Coola Area\/ Millipede Boulder","total":3,"trad":0},{"boulder":5,"lat":33.9294,"lon":-86.249,"sport":0,"title":"Suspicion Boulders","total":5,"trad":0},{"boulder":41,"lat":33.9294,"lon":-86.249,"sport":0,"title":"Ten Pins Area","total":41,"trad":0},{"boulder":11,"lat":33.9294,"lon":-86.249,"sport":0,"title":"The Middle\/ Flow Area","total":11,"trad":0},{"boulder":15,"lat":33.9294,"lon":-86.249,"sport":0,"title":"The Wash","total":15,"trad":0},{"boulder":5,"lat":33.9294,"lon":-86.249,"sport":0,"title":"Turtle Rock Area\/ Corridors Area","total":5,"trad":0},{"boulder":5,"lat":33.9294,"lon":-86.249,"sport":0,"title":"Turtle Rock Area\/ Landslide Boulders","total":5,"trad":0},{"boulder":11,"lat":33.9294,"lon":-86.249,"sport":0,"title":"Turtle Rock Area\/ Panty Shields Boulder","total":11,"trad":0},{"boulder":9,"lat":33.9294,"lon":-86.249,"sport":0,"title":"Turtle Rock Area\/ Slabolicious Block","total":9,"trad":0},{"boulder":6,"lat":33.9294,"lon":-86.249,"sport":0,"title":"Turtle Rock Area\/ Small Stage Boulder","total":6,"trad":0},{"boulder":10,"lat":33.9294,"lon":-86.249,"sport":0,"title":"Turtle Rock Area\/ Turtle Boulder","total":10,"trad":0},{"boulder":13,"lat":33.9294,"lon":-86.249,"sport":0,"title":"Turtle Rock Area\/ Warning Signs Boulder","total":13,"trad":0},{"boulder":9,"lat":33.9294,"lon":-86.249,"sport":0,"title":"Turtle Rock Area\/ Whiplash Boulders.","total":9,"trad":0},{"boulder":4,"lat":33.9294,"lon":-86.249,"sport":0,"title":"Turtle Rock, Big Boulder","total":4,"trad":0},{"boulder":8,"lat":33.9294,"lon":-86.249,"sport":0,"title":"Turtle Rock\/ Natural Boulder","total":8,"trad":0},{"boulder":9,"lat":33.9294,"lon":-86.249,"sport":0,"title":"Vandala Boulder","total":9,"trad":0},{"boulder":0,"lat":34.4112,"lon":-85.5737,"sport":0,"title":"Harvest Wall","total":20,"trad":20},{"boulder":0,"lat":34.4112,"lon":-85.5737,"sport":0,"title":"Unnamed Wall","total":2,"trad":2},{"boulder":0,"lat":34.4112,"lon":-85.5737,"sport":2,"title":"White Wall","total":13,"trad":11},{"boulder":0,"lat":34.4112,"lon":-85.5737,"sport":2,"title":"Winter Wall","total":11,"trad":9},{"boulder":17,"lat":33.3836,"lon":-86.8416,"sport":0,"title":"Grass Man Area","total":17,"trad":0},{"boulder":3,"lat":33.3836,"lon":-86.8416,"sport":0,"title":"Lost Roof Area","total":3,"trad":0},{"boulder":2,"lat":33.3836,"lon":-86.8416,"sport":0,"title":"Novak Area","total":2,"trad":0},{"boulder":20,"lat":33.3836,"lon":-86.8416,"sport":0,"title":"Ozzy Area","total":20,"trad":0},{"boulder":5,"lat":34.1804,"lon":-85.817,"sport":1,"title":"Fireplace Rock","total":5,"trad":0},{"boulder":0,"lat":34.1804,"lon":-85.817,"sport":7,"title":"Grotto","total":10,"trad":3},{"boulder":0,"lat":34.1804,"lon":-85.817,"sport":9,"title":"Holiday Block","total":17,"trad":8},{"boulder":0,"lat":34.1804,"lon":-85.817,"sport":4,"title":"Jaws Block\/West Side Rock","total":8,"trad":3},{"boulder":2,"lat":34.1804,"lon":-85.817,"sport":0,"title":"Redneck Rhino Boulder","total":2,"trad":0},{"boulder":0,"lat":34.1804,"lon":-85.817,"sport":25,"title":"Sun Wall","total":41,"trad":15},{"boulder":0,"lat":34.1804,"lon":-85.817,"sport":1,"title":"The Basement","total":1,"trad":0},{"boulder":0,"lat":34.1804,"lon":-85.817,"sport":1,"title":"The Flintstone","total":3,"trad":2},{"boulder":0,"lat":34.1804,"lon":-85.817,"sport":5,"title":"The Hole","total":5,"trad":0},{"boulder":0,"lat":34.1804,"lon":-85.817,"sport":8,"title":"The Islands","total":8,"trad":0},{"boulder":0,"lat":34.1804,"lon":-85.817,"sport":10,"title":"The New Wall. aka Kurt Russell Block","total":10,"trad":0},{"boulder":0,"lat":34.1804,"lon":-85.817,"sport":1,"title":"The Pinnacle","total":13,"trad":12},{"boulder":0,"lat":34.1804,"lon":-85.817,"sport":0,"title":"The Sandtrap","total":5,"trad":5},{"boulder":0,"lat":34.1804,"lon":-85.817,"sport":10,"title":"Turtle Rock","total":18,"trad":8},{"boulder":0,"lat":61.2134,"lon":-149.8672,"sport":14,"title":"Anchorage & South Central Ice Climbing ","total":112,"trad":50},{"boulder":6,"lat":61.7646,"lon":-148.53391,"sport":0,"title":"Chickaloon Boulders","total":6,"trad":0},{"boulder":1,"lat":60.4827,"lon":-148.38633,"sport":0,"title":"Deep Water Bay","total":3,"trad":2},{"boulder":8,"lat":61.20798,"lon":-149.25237,"sport":20,"title":"Eagle River ","total":32,"trad":4},{"boulder":0,"lat":60.96009,"lon":-149.08529,"sport":2,"title":"Girdwood- Ryan's Rip","total":3,"trad":0},{"boulder":44,"lat":61.81347,"lon":-149.25537,"sport":35,"title":"Hatcher Pass","total":164,"trad":95},{"boulder":22,"lat":61.2174,"lon":-149.8755,"sport":0,"title":"Long Lake (Revised)","total":22,"trad":0},{"boulder":5,"lat":61.2174,"lon":-149.8755,"sport":20,"title":"Portage","total":29,"trad":3},{"boulder":4,"lat":61.0696,"lon":-149.59775,"sport":0,"title":"Powerline Boulders","total":4,"trad":0},{"boulder":0,"lat":61.2174,"lon":-149.8755,"sport":0,"title":"Ptarmigan Peak","total":3,"trad":0},{"boulder":0,"lat":61.81196,"lon":-148.13849,"sport":16,"title":"Purinton Creek","total":58,"trad":42},{"boulder":5,"lat":61.80495,"lon":-148.29827,"sport":13,"title":"Ravine Lake Climbing areas","total":33,"trad":15},{"boulder":7,"lat":61.1415,"lon":-149.7641,"sport":0,"title":"Service Boulder, Anchorage, AK","total":7,"trad":0},{"boulder":8,"lat":61.0583,"lon":-149.7979,"sport":214,"title":"Seward Highway","total":325,"trad":115},{"boulder":0,"lat":61.0767,"lon":-149.57069,"sport":3,"title":"The Wedge","total":9,"trad":6},{"boulder":0,"lat":61.13066,"lon":-146.35117,"sport":61,"title":"Valdez Area Rock","total":76,"trad":15},{"boulder":0,"lat":61.8114,"lon":-148.16611,"sport":47,"title":"Wookie Wall\/Weiner Lake ","total":79,"trad":34},{"boulder":0,"lat":64.8209,"lon":-147.74409,"sport":0,"title":" Mount Prindle","total":2,"trad":2},{"boulder":0,"lat":64.8209,"lon":-147.74409,"sport":0,"title":"Angel Creek Rocks","total":15,"trad":13},{"boulder":0,"lat":63.79555,"lon":-148.92432,"sport":0,"title":"Dragonfly Creek","total":2,"trad":0},{"boulder":0,"lat":64.8209,"lon":-147.74409,"sport":0,"title":"Granite Tors","total":12,"trad":9},{"boulder":0,"lat":64.8209,"lon":-147.74409,"sport":42,"title":"Grapefruit Rocks","total":78,"trad":12},{"boulder":0,"lat":63.8116,"lon":-148.9498,"sport":0,"title":"Johnny Cash Ice Falls","total":2,"trad":0},{"boulder":10,"lat":64.1702,"lon":-149.29871,"sport":0,"title":"Tatlanika","total":10,"trad":0},{"boulder":5,"lat":63.3718,"lon":-145.2283,"sport":0,"title":"Delta Range","total":6,"trad":0},{"boulder":0,"lat":63.0649,"lon":-151.17191,"sport":0,"title":"Denali National Park","total":63,"trad":41},{"boulder":0,"lat":33.5471,"lon":-111.6482,"sport":0,"title":"Coon Bluff","total":2,"trad":0},{"boulder":0,"lat":33.4314,"lon":-112.0715,"sport":6,"title":"Crown King Area","total":8,"trad":2},{"boulder":0,"lat":33.25791,"lon":-111.24973,"sport":12,"title":"Dromedary Peak","total":16,"trad":3},{"boulder":4,"lat":33.4314,"lon":-112.0715,"sport":1,"title":"Eagletail Mountains","total":8,"trad":3},{"boulder":0,"lat":34.29973,"lon":-111.35709,"sport":9,"title":"East Verde","total":21,"trad":13},{"boulder":0,"lat":33.7132,"lon":-111.3303,"sport":0,"title":"Four Peaks Wilderness","total":2,"trad":2},{"boulder":0,"lat":33.4314,"lon":-112.0715,"sport":1,"title":"Hinterland","total":1,"trad":1},{"boulder":0,"lat":34.6194,"lon":-114.3401,"sport":0,"title":"Lake Havasu","total":5,"trad":4},{"boulder":0,"lat":33.2684,"lon":-111.1599,"sport":0,"title":"Picket Post Mountain","total":1,"trad":1},{"boulder":0,"lat":33.56424,"lon":-111.51119,"sport":0,"title":"Saguaro Lake","total":4,"trad":4},{"boulder":10,"lat":33.8501,"lon":-113.68748,"sport":5,"title":"Salome","total":17,"trad":0},{"boulder":0,"lat":33.12858,"lon":-111.65372,"sport":0,"title":"Santans","total":3,"trad":3},{"boulder":0,"lat":33.4314,"lon":-112.0715,"sport":5,"title":"Sierra Ancha Mountains","total":5,"trad":1},{"boulder":0,"lat":33.4314,"lon":-112.0715,"sport":2,"title":"Stewart Pocket","total":2,"trad":2},{"boulder":0,"lat":33.84327,"lon":-111.46403,"sport":0,"title":"Sycamore Wall","total":4,"trad":4},{"boulder":0,"lat":33.4314,"lon":-112.0715,"sport":1,"title":"Tam O'Shanter","total":1,"trad":0},{"boulder":0,"lat":33.4314,"lon":-112.0715,"sport":0,"title":"Top of the World","total":1,"trad":1},{"boulder":0,"lat":33.4314,"lon":-112.0715,"sport":1,"title":"Waugh Wall","total":1,"trad":0},{"boulder":0,"lat":34.5539,"lon":-111.41886,"sport":4,"title":"West Clear Creek","total":36,"trad":33},{"boulder":0,"lat":34.67534,"lon":-111.65967,"sport":0,"title":"Wet Beaver Crack","total":11,"trad":10},{"boulder":0,"lat":33.2332,"lon":-111.1119,"sport":7,"title":"Wood Canyon","total":13,"trad":7},{"boulder":0,"lat":33.4314,"lon":-112.0715,"sport":1,"title":"Workman Falls","total":3,"trad":2},{"boulder":239,"lat":33.5046,"lon":-112.077,"sport":113,"title":"**Phoenix Areas","total":573,"trad":253},{"boulder":167,"lat":34.5456,"lon":-112.4691,"sport":53,"title":"**Prescott Areas","total":411,"trad":201},{"boulder":0,"lat":34.36127,"lon":-111.45026,"sport":56,"title":"*Isolation Canyon","total":124,"trad":71},{"boulder":42,"lat":33.30561,"lon":-111.07634,"sport":361,"title":"*Queen Creek Canyon","total":587,"trad":203},{"boulder":0,"lat":33.17393,"lon":-110.78165,"sport":230,"title":"*The Homestead","total":231,"trad":0},{"boulder":3,"lat":36.046,"lon":-111.9203,"sport":24,"title":"Grand Canyon National Park","total":49,"trad":25},{"boulder":0,"lat":35.2209,"lon":-114.0285,"sport":4,"title":"Kingman Areas","total":10,"trad":6},{"boulder":0,"lat":36.14052,"lon":-110.41849,"sport":0,"title":"Navajolands","total":40,"trad":40},{"boulder":0,"lat":36.64199,"lon":-113.14824,"sport":53,"title":"The Arizona Strip","total":56,"trad":3},{"boulder":454,"lat":35.1963,"lon":-111.6499,"sport":0,"title":"*Bouldering Northern Arizona","total":454,"trad":0},{"boulder":15,"lat":35.17487,"lon":-111.65958,"sport":269,"title":"*Flagstaff Crags","total":456,"trad":184},{"boulder":0,"lat":34.9524,"lon":-111.7543,"sport":54,"title":"*Oak Creek Canyon","total":218,"trad":179},{"boulder":4,"lat":34.8661,"lon":-111.7636,"sport":43,"title":"*Sedona Area","total":239,"trad":204},{"boulder":0,"lat":35.2515,"lon":-112.1902,"sport":11,"title":"*Williams\/ Sycamore Canyon","total":176,"trad":165},{"boulder":23,"lat":35.0075,"lon":-110.7044,"sport":265,"title":"*Winslow Areas","total":318,"trad":36},{"boulder":2,"lat":32.2534,"lon":-110.9237,"sport":0,"title":"Arivaca Lake","total":2,"trad":0},{"boulder":0,"lat":31.77131,"lon":-111.59661,"sport":3,"title":"Baboquivari Peak","total":13,"trad":11},{"boulder":0,"lat":32.2534,"lon":-110.9237,"sport":0,"title":"Chiricahua National Monument","total":0,"trad":0},{"boulder":15,"lat":31.9212,"lon":-109.98703,"sport":136,"title":"Cochise Stronghold","total":250,"trad":123},{"boulder":0,"lat":33.27882,"lon":-113.75543,"sport":0,"title":"K.O.F.A.","total":1,"trad":1},{"boulder":0,"lat":31.9583,"lon":-111.598,"sport":0,"title":"Kitt Peak","total":0,"trad":0},{"boulder":0,"lat":31.98512,"lon":-111.5152,"sport":1,"title":"Mendoza Canyon (aka Coyote Domes)","total":11,"trad":11},{"boulder":317,"lat":32.4471,"lon":-110.7905,"sport":1162,"title":"Mount Lemmon (Santa Catalina Mountains)","total":2046,"trad":651},{"boulder":0,"lat":32.2534,"lon":-110.9237,"sport":1,"title":"Newman Peak- \"The Shady Lady?\"","total":4,"trad":3},{"boulder":0,"lat":32.70289,"lon":-109.87176,"sport":0,"title":"Pinaleno mtns. (Hell's Hole)","total":1,"trad":1},{"boulder":0,"lat":32.2534,"lon":-110.9237,"sport":0,"title":"Rincon Mountains","total":8,"trad":8},{"boulder":0,"lat":32.2534,"lon":-110.9237,"sport":0,"title":"Santa Rita Mountains","total":4,"trad":4},{"boulder":4,"lat":32.49233,"lon":-110.94842,"sport":0,"title":"Stone Canyon","total":4,"trad":0},{"boulder":0,"lat":32.25191,"lon":-110.73711,"sport":16,"title":"Tanque Verde Canyon","total":16,"trad":0},{"boulder":0,"lat":32.2534,"lon":-110.9237,"sport":0,"title":"Texas Canyon","total":3,"trad":3},{"boulder":0,"lat":31.7862,"lon":-110.40666,"sport":54,"title":"The Dry Canyon","total":54,"trad":1},{"boulder":0,"lat":32.2534,"lon":-110.9237,"sport":5,"title":"The End of the Road","total":8,"trad":3},{"boulder":0,"lat":31.69124,"lon":-110.42815,"sport":4,"title":"The Farmhouse","total":4,"trad":0},{"boulder":0,"lat":31.694,"lon":-110.4713,"sport":19,"title":"The Mustang","total":19,"trad":3},{"boulder":0,"lat":32.2957,"lon":-114.0403,"sport":0,"title":"Tinajas Altas","total":12,"trad":12},{"boulder":0,"lat":32.8429,"lon":-109.3972,"sport":6,"title":"Tollgate Pass","total":6,"trad":0},{"boulder":146,"lat":32.21942,"lon":-110.92576,"sport":0,"title":"Tucson Area Bouldering","total":146,"trad":0},{"boulder":5,"lat":32.2534,"lon":-110.9237,"sport":0,"title":"Tucson Buildering","total":5,"trad":1},{"boulder":2,"lat":32.20882,"lon":-111.10618,"sport":0,"title":"Tucson Mountains","total":8,"trad":0},{"boulder":18,"lat":35.8786,"lon":-93.121,"sport":0,"title":"Fountain Red","total":18,"trad":0},{"boulder":12,"lat":35.8786,"lon":-93.121,"sport":0,"title":"Fred's Cave Area","total":12,"trad":0},{"boulder":0,"lat":35.85138,"lon":-93.12402,"sport":10,"title":"Hudson Mountain","total":11,"trad":1},{"boulder":0,"lat":35.87141,"lon":-93.13034,"sport":7,"title":"Invasion Wall","total":7,"trad":0},{"boulder":7,"lat":35.8786,"lon":-93.121,"sport":0,"title":"Power Wall","total":7,"trad":0},{"boulder":1,"lat":36.0118,"lon":-93.2922,"sport":0,"title":"Black Cave","total":1,"trad":0},{"boulder":0,"lat":36.0049,"lon":-93.2846,"sport":10,"title":"Cliffs of Insanity","total":11,"trad":1},{"boulder":0,"lat":36.0118,"lon":-93.2922,"sport":12,"title":"Confederate Cracks","total":21,"trad":9},{"boulder":0,"lat":36.0118,"lon":-93.2922,"sport":8,"title":"Crackhouse Alley","total":11,"trad":3},{"boulder":1,"lat":36.0118,"lon":-93.2922,"sport":11,"title":"Goat Cave","total":13,"trad":1},{"boulder":35,"lat":36.0027,"lon":-93.2937,"sport":0,"title":"Idaho Boulders","total":35,"trad":0},{"boulder":2,"lat":36.0118,"lon":-93.2922,"sport":9,"title":"Land of the Lost","total":12,"trad":1},{"boulder":0,"lat":36.00506,"lon":-93.28468,"sport":4,"title":"Mexican Pillar","total":4,"trad":0},{"boulder":3,"lat":36.0071,"lon":-93.2875,"sport":16,"title":"Middle East","total":21,"trad":2},{"boulder":1,"lat":36.0055,"lon":-93.2861,"sport":9,"title":"Mr. Magoo Rock","total":10,"trad":0},{"boulder":2,"lat":36.0118,"lon":-93.2922,"sport":4,"title":"Mullet Buttress","total":6,"trad":0},{"boulder":0,"lat":35.7531,"lon":-91.76084,"sport":5,"title":"New Roman Wall","total":6,"trad":1},{"boulder":22,"lat":36.0118,"lon":-93.2922,"sport":0,"title":"North Forty Boulders","total":22,"trad":0},{"boulder":0,"lat":36.00388,"lon":-93.29631,"sport":9,"title":"Prophecy Wall","total":9,"trad":0},{"boulder":0,"lat":36.0118,"lon":-93.2922,"sport":12,"title":"Ren and Stimpy","total":12,"trad":0},{"boulder":0,"lat":36.0118,"lon":-93.2922,"sport":14,"title":"Roman Wall","total":16,"trad":2},{"boulder":13,"lat":36.0118,"lon":-93.2922,"sport":0,"title":"Sloping Joe Boulder","total":13,"trad":0},{"boulder":9,"lat":36.0118,"lon":-93.2922,"sport":0,"title":"South Idaho's","total":9,"trad":0},{"boulder":0,"lat":36.00556,"lon":-93.29739,"sport":6,"title":"The Doomsday Wall","total":6,"trad":0},{"boulder":0,"lat":36.0118,"lon":-93.2922,"sport":22,"title":"The Far East","total":24,"trad":3},{"boulder":0,"lat":36.0118,"lon":-93.2922,"sport":19,"title":"The Land Beyond","total":19,"trad":0},{"boulder":7,"lat":36.01031,"lon":-93.29311,"sport":0,"title":"The Land Beyond Boulders","total":7,"trad":0},{"boulder":0,"lat":36.00881,"lon":-93.29549,"sport":99,"title":"The North Forty","total":118,"trad":20},{"boulder":0,"lat":36.0053,"lon":-93.2973,"sport":9,"title":"Titanic Boulder","total":11,"trad":2},{"boulder":0,"lat":36.0053,"lon":-93.2974,"sport":7,"title":"Titanic Wall","total":7,"trad":0},{"boulder":6,"lat":36.0118,"lon":-93.2922,"sport":0,"title":"Undertow Boulder","total":6,"trad":0},{"boulder":0,"lat":35.6604,"lon":-91.7539,"sport":18,"title":"Amateur Route Area","total":19,"trad":1},{"boulder":0,"lat":35.6604,"lon":-91.7539,"sport":1,"title":"Dogwalk","total":1,"trad":0},{"boulder":0,"lat":35.6604,"lon":-91.7539,"sport":5,"title":"Game Wall","total":5,"trad":0},{"boulder":0,"lat":35.6604,"lon":-91.7539,"sport":2,"title":"Large Boulder","total":2,"trad":0},{"boulder":0,"lat":35.6604,"lon":-91.7539,"sport":5,"title":"Metal Wall","total":5,"trad":0},{"boulder":0,"lat":35.6604,"lon":-91.7539,"sport":24,"title":"Natural Disaster Area","total":28,"trad":4},{"boulder":0,"lat":35.6604,"lon":-91.7539,"sport":3,"title":"Strawberry shortcake wall","total":3,"trad":0},{"boulder":0,"lat":35.6604,"lon":-91.7539,"sport":4,"title":"The Beyond Wall","total":4,"trad":0},{"boulder":0,"lat":35.6604,"lon":-91.7539,"sport":2,"title":"Upper Wall","total":2,"trad":0},{"boulder":0,"lat":35.6604,"lon":-91.7539,"sport":3,"title":"VD Wall","total":4,"trad":1},{"boulder":1,"lat":35.6604,"lon":-91.7539,"sport":2,"title":"Waterfall Area","total":3,"trad":0},{"boulder":2,"lat":35.99885,"lon":-94.41469,"sport":0,"title":"Across the Dam","total":2,"trad":0},{"boulder":0,"lat":35.9983,"lon":-94.427,"sport":1,"title":"Green Peninsula at Lincoln Lake","total":1,"trad":0},{"boulder":1,"lat":35.9983,"lon":-94.427,"sport":21,"title":"North Side","total":29,"trad":7},{"boulder":1,"lat":35.9983,"lon":-94.427,"sport":9,"title":"South Side","total":10,"trad":1},{"boulder":1,"lat":35.99257,"lon":-94.42258,"sport":0,"title":"South(East)Side Bouldering","total":1,"trad":0},{"boulder":0,"lat":35.8447,"lon":-93.0459,"sport":5,"title":"Candy Mountain","total":6,"trad":1},{"boulder":0,"lat":35.8439,"lon":-93.0574,"sport":26,"title":"Cave Creek","total":35,"trad":12},{"boulder":0,"lat":35.87051,"lon":-93.05253,"sport":34,"title":"Sam's Throne","total":122,"trad":104},{"boulder":0,"lat":35.8829,"lon":-92.9113,"sport":10,"title":"Stack Rock","total":19,"trad":9},{"boulder":0,"lat":35.8482,"lon":-93.0621,"sport":8,"title":"Valley of The Blind","total":15,"trad":9},{"boulder":13,"lat":35.8386,"lon":-121.4012,"sport":0,"title":"Big Sur","total":15,"trad":1},{"boulder":0,"lat":34.2029,"lon":-118.972,"sport":0,"title":"Camarillo Springs Boulder (Lonesome Cube)","total":0,"trad":0},{"boulder":6,"lat":36.5388,"lon":-121.9278,"sport":0,"title":"Carmel River State Beach (aka Stewart's Cove)","total":6,"trad":0},{"boulder":11,"lat":34.1978,"lon":-118.9635,"sport":13,"title":"Conejo Mountain","total":27,"trad":1},{"boulder":0,"lat":36.5008,"lon":-121.939,"sport":0,"title":"Crab Town","total":0,"trad":0},{"boulder":6,"lat":34.1954,"lon":-118.8859,"sport":0,"title":"Gainsborough Boulders","total":6,"trad":0},{"boulder":0,"lat":35.1109,"lon":-120.096,"sport":47,"title":"Hwy 166\/Silly Rock","total":47,"trad":0},{"boulder":177,"lat":34.4873,"lon":-119.303,"sport":61,"title":"Hwy 33\/Ojai","total":281,"trad":40},{"boulder":2,"lat":36.9924,"lon":-122.1699,"sport":0,"title":"Panther Beach","total":2,"trad":0},{"boulder":0,"lat":36.5004,"lon":-121.202,"sport":124,"title":"Pinnacles National Monument","total":182,"trad":66},{"boulder":1,"lat":34.0861,"lon":-119.0589,"sport":0,"title":"Point Mugu","total":12,"trad":2},{"boulder":22,"lat":35.3063,"lon":-120.678,"sport":100,"title":"San Luis Obispo","total":200,"trad":72},{"boulder":400,"lat":34.4477,"lon":-119.68,"sport":100,"title":"Santa Barbara","total":637,"trad":117},{"boulder":0,"lat":34.4573,"lon":-118.9232,"sport":0,"title":"Tar Creek (the Swimming Hole)","total":0,"trad":0},{"boulder":0,"lat":36.0841,"lon":-121.401,"sport":4,"title":"Wagon Caves","total":22,"trad":0},{"boulder":0,"lat":38.4939,"lon":-120.2172,"sport":3,"title":"Calaveras Dome Area","total":17,"trad":15},{"boulder":3,"lat":38.03607,"lon":-120.4017,"sport":0,"title":"Columbia Bouldering","total":3,"trad":0},{"boulder":0,"lat":38.4231,"lon":-120.082,"sport":0,"title":"Hell's Kitchen","total":0,"trad":0},{"boulder":1,"lat":38.53722,"lon":-120.09478,"sport":0,"title":"Mokelumne Wilderness","total":2,"trad":1},{"boulder":6,"lat":38.17532,"lon":-120.02685,"sport":68,"title":"Sonora Pass Highway (108)","total":102,"trad":30},{"boulder":0,"lat":38.6506,"lon":-119.7245,"sport":24,"title":"True Value Crag","total":24,"trad":0},{"boulder":0,"lat":38.1972,"lon":-120.8184,"sport":0,"title":"Valley Springs Klippe","total":0,"trad":0},{"boulder":73,"lat":34.4901,"lon":-117.1244,"sport":122,"title":"Apple Valley Crags","total":232,"trad":23},{"boulder":0,"lat":34.6663,"lon":-116.9784,"sport":0,"title":"Butt Rock Outcrop","total":0,"trad":0},{"boulder":0,"lat":34.1227,"lon":-116.3085,"sport":0,"title":"Coyote Hole","total":0,"trad":0},{"boulder":0,"lat":34.4139,"lon":-117.8587,"sport":46,"title":"Devil's Punchbowl","total":53,"trad":9},{"boulder":0,"lat":34.3181,"lon":-116.4217,"sport":7,"title":"Giant Rock","total":7,"trad":0},{"boulder":0,"lat":34.5842,"lon":-116.8125,"sport":4,"title":"Hercules Finger","total":5,"trad":0},{"boulder":34,"lat":35.02161,"lon":-117.16688,"sport":0,"title":"High Desert Bouldering","total":34,"trad":0},{"boulder":3,"lat":34.3219,"lon":-116.5059,"sport":12,"title":"Johnson Valley Areas","total":36,"trad":12},{"boulder":2,"lat":34.34552,"lon":-117.23173,"sport":0,"title":"Juniper Flats","total":2,"trad":0},{"boulder":0,"lat":34.5166,"lon":-116.9926,"sport":20,"title":"Lucerne Limestone","total":20,"trad":0},{"boulder":0,"lat":34.35168,"lon":-117.11451,"sport":4,"title":"Luna Boulders","total":5,"trad":1},{"boulder":0,"lat":35.0121,"lon":-115.655,"sport":0,"title":"Mojave National Preserve","total":2,"trad":2},{"boulder":4,"lat":34.66539,"lon":-116.97834,"sport":206,"title":"New Jack City","total":214,"trad":2},{"boulder":0,"lat":34.5216,"lon":-115.1649,"sport":0,"title":"Old Woman Statue","total":1,"trad":1},{"boulder":0,"lat":34.4688,"lon":-117.0163,"sport":0,"title":"Rabbit Dome (aka Cable Dome)","total":1,"trad":1},{"boulder":0,"lat":34.1981,"lon":-116.54599,"sport":0,"title":"Rim Rock","total":0,"trad":0},{"boulder":0,"lat":35.06748,"lon":-118.48531,"sport":0,"title":"Tehachapi Area","total":3,"trad":0},{"boulder":0,"lat":34.19368,"lon":-115.72665,"sport":0,"title":"Wonder Valley","total":0,"trad":0},{"boulder":0,"lat":37.696,"lon":-119.1946,"sport":0,"title":"Banner Peak","total":1,"trad":1},{"boulder":0,"lat":37.8461,"lon":-118.3513,"sport":0,"title":"Boundary Peak","total":0,"trad":0},{"boulder":0,"lat":36.88061,"lon":-118.4566,"sport":0,"title":"Castle Dome","total":1,"trad":1},{"boulder":0,"lat":36.7825,"lon":-118.48,"sport":0,"title":"Charlotte Dome","total":3,"trad":3},{"boulder":0,"lat":37.25855,"lon":-118.66031,"sport":0,"title":"Checkered Demon","total":2,"trad":2},{"boulder":0,"lat":37.143,"lon":-118.529,"sport":0,"title":"Cloudripper","total":1,"trad":1},{"boulder":0,"lat":37.6604,"lon":-119.174,"sport":0,"title":"Clyde Minaret","total":2,"trad":2},{"boulder":0,"lat":37.0893,"lon":-118.5416,"sport":0,"title":"Columbine Peak","total":2,"trad":2},{"boulder":0,"lat":37.0081,"lon":-118.50509,"sport":0,"title":"Cyclorama Wall","total":0,"trad":0},{"boulder":0,"lat":37.27551,"lon":-118.67656,"sport":0,"title":"Darwin Canyon","total":0,"trad":0},{"boulder":0,"lat":37.27551,"lon":-118.67656,"sport":0,"title":"Devils Crag  1","total":1,"trad":1},{"boulder":0,"lat":37.326,"lon":-118.7782,"sport":0,"title":"Feather Peak","total":4,"trad":3},{"boulder":0,"lat":37.1421,"lon":-118.5661,"sport":0,"title":"Hurd Peak","total":0,"trad":0},{"boulder":0,"lat":37.0951,"lon":-118.5423,"sport":0,"title":"Isosceles Peak","total":9,"trad":9},{"boulder":0,"lat":36.6899,"lon":-118.3657,"sport":0,"title":"Junction Peak","total":1,"trad":1},{"boulder":0,"lat":37.5853,"lon":-118.8858,"sport":0,"title":"Laurel Mountain","total":3,"trad":3},{"boulder":0,"lat":37.45691,"lon":-118.73527,"sport":0,"title":"Little Lakes Valley & Mono Recesses","total":7,"trad":7},{"boulder":0,"lat":37.3088,"lon":-118.7651,"sport":0,"title":"Merriam Peak","total":5,"trad":5},{"boulder":0,"lat":36.7085,"lon":-118.4854,"sport":0,"title":"Mt. Brewer","total":1,"trad":1},{"boulder":0,"lat":36.8333,"lon":-118.4465,"sport":0,"title":"Mt. Clarence King","total":3,"trad":3},{"boulder":0,"lat":37.1669,"lon":-118.6715,"sport":0,"title":"Mt. Darwin","total":2,"trad":1},{"boulder":0,"lat":37.242,"lon":-118.653,"sport":0,"title":"Mt. Emerson","total":1,"trad":1},{"boulder":0,"lat":36.7286,"lon":-118.4989,"sport":0,"title":"Mt. Francis Farquhar","total":1,"trad":1},{"boulder":0,"lat":37.1231,"lon":-118.568,"sport":0,"title":"Mt. Goode","total":4,"trad":3},{"boulder":0,"lat":37.2705,"lon":-118.673,"sport":0,"title":"Mt. Humphreys","total":3,"trad":3},{"boulder":0,"lat":37.27551,"lon":-118.67656,"sport":0,"title":"Mt. Lamarck","total":1,"trad":1},{"boulder":0,"lat":37.7394,"lon":-119.2716,"sport":0,"title":"Mt. Lyell","total":1,"trad":0},{"boulder":0,"lat":37.175,"lon":-118.68,"sport":0,"title":"Mt. Mendel","total":1,"trad":0},{"boulder":0,"lat":37.56132,"lon":-118.85821,"sport":0,"title":"Mt. Morrison","total":11,"trad":11},{"boulder":0,"lat":37.6894,"lon":-119.198,"sport":0,"title":"Mt. Ritter","total":1,"trad":1},{"boulder":0,"lat":36.6556,"lon":-118.3369,"sport":0,"title":"Mt. Tyndall","total":2,"trad":2},{"boulder":0,"lat":36.6561,"lon":-118.3111,"sport":0,"title":"Mt. Williamson","total":3,"trad":3},{"boulder":0,"lat":37.27551,"lon":-118.67656,"sport":0,"title":"North Guard","total":1,"trad":1},{"boulder":0,"lat":37.27551,"lon":-118.67656,"sport":0,"title":"North Peak","total":2,"trad":1},{"boulder":0,"lat":37.17458,"lon":-118.62872,"sport":0,"title":"Peak 11,874","total":1,"trad":1},{"boulder":0,"lat":37.32897,"lon":-118.7578,"sport":0,"title":"Peak 12,563","total":1,"trad":1},{"boulder":0,"lat":37.27551,"lon":-118.67656,"sport":0,"title":"Peak 13,048","total":1,"trad":1},{"boulder":0,"lat":37.27551,"lon":-118.67656,"sport":0,"title":"Peak 13,332","total":0,"trad":0},{"boulder":0,"lat":37.18032,"lon":-118.68684,"sport":0,"title":"Peak 13,360","total":1,"trad":1},{"boulder":0,"lat":37.27551,"lon":-118.67656,"sport":0,"title":"Picture Peak","total":1,"trad":1},{"boulder":0,"lat":37.57998,"lon":-118.9607,"sport":0,"title":"Pyramid Peak","total":1,"trad":1},{"boulder":0,"lat":37.5076,"lon":-118.8693,"sport":0,"title":"Red Slate Mountain","total":1,"trad":0},{"boulder":0,"lat":37.0209,"lon":-118.4224,"sport":0,"title":"Split Mountain","total":2,"trad":2},{"boulder":0,"lat":36.545,"lon":-118.516,"sport":0,"title":"The Black Kaweah","total":1,"trad":1},{"boulder":0,"lat":37.06489,"lon":-118.61914,"sport":0,"title":"The Citadel","total":2,"trad":2},{"boulder":0,"lat":37.27551,"lon":-118.67656,"sport":0,"title":"The Doodad","total":0,"trad":0},{"boulder":0,"lat":37.27551,"lon":-118.67656,"sport":0,"title":"The Hermit","total":0,"trad":0},{"boulder":0,"lat":37.12832,"lon":-118.42653,"sport":0,"title":"The Palisades","total":28,"trad":28},{"boulder":0,"lat":38.14895,"lon":-119.37709,"sport":0,"title":"The Sawtooth Ridge","total":29,"trad":29},{"boulder":0,"lat":38.14518,"lon":-119.54654,"sport":0,"title":"Tower Peak","total":1,"trad":1},{"boulder":0,"lat":37.124,"lon":-118.576,"sport":0,"title":"Trapezoid Peak","total":2,"trad":2},{"boulder":0,"lat":36.63037,"lon":-118.53116,"sport":0,"title":"Whaleback","total":1,"trad":1},{"boulder":0,"lat":36.57103,"lon":-118.25779,"sport":0,"title":"Whitney and Surrounding Peaks","total":36,"trad":35},{"boulder":0,"lat":36.5979,"lon":-118.6535,"sport":0,"title":"Winter Alta","total":1,"trad":1},{"boulder":12,"lat":33.8423,"lon":-117.164,"sport":16,"title":"Big Rock Area","total":67,"trad":35},{"boulder":4,"lat":33.9893,"lon":-117.3086,"sport":24,"title":"Box Springs Mountain Park","total":47,"trad":16},{"boulder":3,"lat":33.92773,"lon":-117.50497,"sport":0,"title":"Doty Trust Park","total":3,"trad":0},{"boulder":7,"lat":33.7263,"lon":-117.1322,"sport":0,"title":"Double Butte Mountain","total":7,"trad":0},{"boulder":2,"lat":33.77833,"lon":-117.12966,"sport":0,"title":"Juniper Flats","total":4,"trad":2},{"boulder":5,"lat":33.6759,"lon":-117.11762,"sport":0,"title":"Lion's Den: Menifee","total":5,"trad":0},{"boulder":229,"lat":33.984,"lon":-117.3917,"sport":1,"title":"Mount Rubidoux","total":272,"trad":7},{"boulder":0,"lat":34.0169,"lon":-117.4166,"sport":172,"title":"Riverside Quarry","total":179,"trad":4},{"boulder":0,"lat":33.70353,"lon":-116.91982,"sport":0,"title":"Simpson Park","total":0,"trad":0},{"boulder":0,"lat":33.71446,"lon":-117.33626,"sport":0,"title":"Steele Valley","total":0,"trad":0},{"boulder":4,"lat":34.03214,"lon":-117.44449,"sport":0,"title":"Temecula ","total":4,"trad":0},{"boulder":2,"lat":34.03214,"lon":-117.44449,"sport":0,"title":"Thee Area","total":2,"trad":0},{"boulder":4,"lat":33.56812,"lon":-117.24626,"sport":0,"title":"Waishal Trail","total":4,"trad":0},{"boulder":0,"lat":34.0307,"lon":-116.146,"sport":16,"title":"Barker Dam Area","total":99,"trad":77},{"boulder":0,"lat":34.0034,"lon":-116.0189,"sport":5,"title":"Belle Campground Area","total":51,"trad":42},{"boulder":0,"lat":34.013,"lon":-116.143,"sport":7,"title":"Comic Book Area","total":67,"trad":55},{"boulder":0,"lat":34.0122,"lon":-116.168,"sport":2,"title":"Cottonwood Area","total":3,"trad":1},{"boulder":0,"lat":34.0122,"lon":-116.168,"sport":0,"title":"Coxcomb Mountains","total":0,"trad":0},{"boulder":0,"lat":34.0122,"lon":-116.168,"sport":8,"title":"Del Taco Crags Area","total":10,"trad":2},{"boulder":0,"lat":34.02196,"lon":-116.06769,"sport":7,"title":"Desert Queen Mine","total":45,"trad":37},{"boulder":0,"lat":34.02283,"lon":-116.15688,"sport":47,"title":"Echo Rock Area","total":310,"trad":241},{"boulder":0,"lat":34.0122,"lon":-116.168,"sport":3,"title":"Forty Nine Palms Oasis Area","total":11,"trad":7},{"boulder":1,"lat":33.9718,"lon":-116.08,"sport":18,"title":"Geology Tour Road","total":168,"trad":138},{"boulder":0,"lat":34.0162,"lon":-116.1614,"sport":4,"title":"Hidden Valley Campground","total":148,"trad":137},{"boulder":0,"lat":34.0122,"lon":-116.168,"sport":0,"title":"Hospital Crags","total":3,"trad":3},{"boulder":3,"lat":34.0938,"lon":-116.1566,"sport":94,"title":"Indian Cove","total":596,"trad":465},{"boulder":0,"lat":34.0982,"lon":-116.0615,"sport":11,"title":"Indian Head Area","total":25,"trad":10},{"boulder":0,"lat":33.6684,"lon":-115.6546,"sport":1,"title":"Interstate 10 Crags","total":3,"trad":2},{"boulder":0,"lat":33.992,"lon":-116.0682,"sport":11,"title":"Jumbo Rock Area","total":120,"trad":102},{"boulder":1,"lat":33.9992,"lon":-116.0533,"sport":3,"title":"Live Oak Picnic Area","total":40,"trad":36},{"boulder":0,"lat":34.0213,"lon":-116.1793,"sport":18,"title":"Lost Horse Area","total":509,"trad":462},{"boulder":0,"lat":34.0219,"lon":-116.0527,"sport":6,"title":"Loveland","total":47,"trad":38},{"boulder":0,"lat":34.0322,"lon":-116.0403,"sport":26,"title":"OZ Area","total":82,"trad":55},{"boulder":3,"lat":34.0402,"lon":-116.1976,"sport":13,"title":"Quail Springs Area","total":154,"trad":129},{"boulder":0,"lat":34.0481,"lon":-116.1021,"sport":5,"title":"Queen Mountain","total":78,"trad":73},{"boulder":0,"lat":34.0145,"lon":-116.1713,"sport":17,"title":"Real Hidden Valley","total":233,"trad":201},{"boulder":0,"lat":34.0213,"lon":-116.1728,"sport":5,"title":"Roadside Rocks","total":96,"trad":83},{"boulder":3,"lat":33.9986,"lon":-116.1448,"sport":43,"title":"Sheep Pass Area","total":361,"trad":282},{"boulder":0,"lat":34.0094,"lon":-116.0558,"sport":25,"title":"Split Rocks","total":142,"trad":113},{"boulder":0,"lat":33.9605,"lon":-116.0187,"sport":23,"title":"Stirrup Tank","total":116,"trad":86},{"boulder":0,"lat":34.0208,"lon":-116.1659,"sport":3,"title":"The Outback","total":131,"trad":120},{"boulder":0,"lat":33.9861,"lon":-116.0166,"sport":3,"title":"White Tank Campground","total":13,"trad":9},{"boulder":0,"lat":34.03843,"lon":-116.14483,"sport":65,"title":"Wonderland of Rocks","total":559,"trad":462},{"boulder":941,"lat":34.01565,"lon":-116.16298,"sport":0,"title":"*Joshua Tree Bouldering*","total":941,"trad":3},{"boulder":118,"lat":34.34823,"lon":-117.94542,"sport":174,"title":"Angeles National Forest","total":388,"trad":62},{"boulder":1,"lat":34.12133,"lon":-118.31429,"sport":0,"title":"Bronson Canyon\/The Bat Cave","total":1,"trad":0},{"boulder":0,"lat":34.1432,"lon":-118.1835,"sport":1,"title":"Eagle Rock","total":1,"trad":0},{"boulder":3,"lat":34.0508,"lon":-117.79585,"sport":0,"title":"Elephant Hill","total":3,"trad":0},{"boulder":5,"lat":33.38528,"lon":-118.47347,"sport":0,"title":"Little Harbor\/Shark Harbor. ","total":5,"trad":0},{"boulder":0,"lat":34.07255,"lon":-118.70505,"sport":0,"title":"Malibu Tunnel Boulders","total":0,"trad":0},{"boulder":1,"lat":33.4731,"lon":-118.5503,"sport":0,"title":"Parsons Beach","total":1,"trad":1},{"boulder":39,"lat":33.5949,"lon":-117.8781,"sport":0,"title":"Pirate's Cove (aka The Beach or Corona Del Mar)","total":41,"trad":11},{"boulder":1,"lat":34.015,"lon":-118.8205,"sport":1,"title":"Point Dume","total":9,"trad":0},{"boulder":81,"lat":33.70978,"lon":-117.5338,"sport":9,"title":"Santa Ana Mountains","total":111,"trad":16},{"boulder":3,"lat":34.08303,"lon":-118.78588,"sport":333,"title":"Santa Monica Mountains","total":363,"trad":9},{"boulder":138,"lat":34.2714,"lon":-118.604,"sport":0,"title":"Stoney Point","total":189,"trad":6},{"boulder":0,"lat":34.06605,"lon":-118.55972,"sport":11,"title":"Tick Rock","total":12,"trad":2},{"boulder":1,"lat":34.0682,"lon":-118.4455,"sport":1,"title":"UCLA","total":3,"trad":2},{"boulder":2,"lat":39.6536,"lon":-121.33549,"sport":1,"title":"Bald Rock","total":4,"trad":1},{"boulder":0,"lat":39.7741,"lon":-121.7729,"sport":0,"title":"Bidwell Park","total":0,"trad":0},{"boulder":3,"lat":40.7793,"lon":-122.0022,"sport":51,"title":"Burney Limestone (aka The Shredding)","total":61,"trad":9},{"boulder":0,"lat":41.2708,"lon":-122.3047,"sport":0,"title":"Cantara Loop","total":0,"trad":0},{"boulder":0,"lat":41.15954,"lon":-122.3059,"sport":4,"title":"Castle Crags","total":15,"trad":12},{"boulder":13,"lat":40.76099,"lon":-123.09676,"sport":4,"title":"Cortizone Corner","total":18,"trad":1},{"boulder":0,"lat":39.87225,"lon":-121.37468,"sport":30,"title":"Grizzly Dome","total":34,"trad":4},{"boulder":13,"lat":40.53211,"lon":-121.63028,"sport":0,"title":"HWY 44 (East of Redding)","total":32,"trad":1},{"boulder":0,"lat":41.96429,"lon":-122.4404,"sport":0,"title":"Iron Gate Crags","total":0,"trad":0},{"boulder":0,"lat":40.51228,"lon":-121.4394,"sport":25,"title":"Lassen National Park","total":108,"trad":75},{"boulder":0,"lat":41.3633,"lon":-122.69198,"sport":33,"title":"Lover's Leap","total":33,"trad":0},{"boulder":0,"lat":41.4092,"lon":-122.1949,"sport":0,"title":"Mt. Shasta","total":4,"trad":0},{"boulder":0,"lat":41.25912,"lon":-122.33644,"sport":0,"title":"Ney Springs","total":2,"trad":2},{"boulder":0,"lat":40.4171,"lon":-120.6674,"sport":0,"title":"Pigeon Cliff","total":2,"trad":2},{"boulder":5,"lat":40.72068,"lon":-121.39594,"sport":0,"title":"Plum Valley boulders","total":5,"trad":0},{"boulder":0,"lat":41.2838,"lon":-122.38,"sport":2,"title":"South Fork","total":3,"trad":3},{"boulder":16,"lat":39.74629,"lon":-120.99274,"sport":4,"title":"The Lost Sierra","total":20,"trad":2},{"boulder":0,"lat":40.1927,"lon":-121.72595,"sport":1,"title":"The Mill","total":12,"trad":8},{"boulder":0,"lat":41.342,"lon":-122.261,"sport":0,"title":"The Throne of the Mountain Gods","total":0,"trad":0},{"boulder":0,"lat":40.25375,"lon":-120.53431,"sport":0,"title":"Tom's Thumb","total":5,"trad":5},{"boulder":3,"lat":39.77165,"lon":-121.76693,"sport":0,"title":"Upper Bidwell Park","total":20,"trad":1},{"boulder":0,"lat":40.393,"lon":-121.3078,"sport":1,"title":"Warner Valley","total":22,"trad":19},{"boulder":0,"lat":40.74952,"lon":-123.51773,"sport":8,"title":"Castle Rock","total":9,"trad":3},{"boulder":0,"lat":41.6155,"lon":-124.115,"sport":5,"title":"Footsteps Rock","total":5,"trad":0},{"boulder":5,"lat":40.4672,"lon":-123.8052,"sport":0,"title":"Goat Rocks","total":6,"trad":0},{"boulder":10,"lat":41.0353,"lon":-124.1192,"sport":0,"title":"Houda Point","total":10,"trad":0},{"boulder":0,"lat":40.85518,"lon":-123.71279,"sport":29,"title":"Land of the Lost","total":32,"trad":2},{"boulder":1,"lat":41.5196,"lon":-124.0815,"sport":0,"title":"Lost Rocks","total":1,"trad":0},{"boulder":0,"lat":41.04,"lon":-124.1197,"sport":8,"title":"Luffenholtz Beach","total":9,"trad":1},{"boulder":0,"lat":40.39359,"lon":-123.3299,"sport":11,"title":"Marble Caves","total":14,"trad":6},{"boulder":12,"lat":41.03,"lon":-124.1125,"sport":2,"title":"Moonstone Beach","total":33,"trad":6},{"boulder":0,"lat":40.49202,"lon":-123.10398,"sport":14,"title":"Natural Bridge \/ High Rock","total":14,"trad":0},{"boulder":1,"lat":41.1384,"lon":-124.1562,"sport":4,"title":"Patrick's Point State Park","total":33,"trad":20},{"boulder":0,"lat":41.6065,"lon":-124.1051,"sport":28,"title":"Promontory","total":30,"trad":2},{"boulder":0,"lat":40.79552,"lon":-123.52377,"sport":8,"title":"So-So Grotto","total":11,"trad":4},{"boulder":0,"lat":40.8221,"lon":-124.1125,"sport":0,"title":"The Roost","total":0,"trad":0},{"boulder":0,"lat":40.9796,"lon":-123.0022,"sport":0,"title":"Trinity Alps","total":1,"trad":1},{"boulder":1,"lat":40.77,"lon":-123.5033,"sport":33,"title":"Trinity Ar\u00eates","total":39,"trad":6},{"boulder":50,"lat":34.25359,"lon":-116.92422,"sport":254,"title":"Big Bear Lake Area","total":532,"trad":197},{"boulder":6,"lat":34.14625,"lon":-116.98327,"sport":87,"title":"Highway 38 Crags","total":101,"trad":6},{"boulder":0,"lat":34.24883,"lon":-117.18978,"sport":38,"title":"Lake Arrowhead Area","total":56,"trad":14},{"boulder":0,"lat":34.3199,"lon":-117.4961,"sport":2,"title":"Mormon Rocks","total":3,"trad":1},{"boulder":12,"lat":34.20452,"lon":-117.10622,"sport":63,"title":"Running Springs Area","total":143,"trad":51},{"boulder":0,"lat":34.0992,"lon":-116.8249,"sport":0,"title":"San Gorgonio Mountain","total":0,"trad":0},{"boulder":0,"lat":32.6913,"lon":-117.012,"sport":4,"title":"Bonita","total":4,"trad":0},{"boulder":12,"lat":33.1662,"lon":-117.2887,"sport":0,"title":"Calavera lake","total":12,"trad":0},{"boulder":0,"lat":32.99417,"lon":-116.97045,"sport":0,"title":"Cerro Terry","total":10,"trad":4},{"boulder":0,"lat":32.7555,"lon":-116.591,"sport":30,"title":"Corte Madera","total":33,"trad":4},{"boulder":2,"lat":33.34175,"lon":-117.13834,"sport":9,"title":"Cougar Crag","total":33,"trad":22},{"boulder":113,"lat":33.2162,"lon":-116.4596,"sport":0,"title":"Culp Valley","total":113,"trad":3},{"boulder":6,"lat":33.1818,"lon":-117.0573,"sport":0,"title":"Daley Ranch","total":6,"trad":0},{"boulder":30,"lat":32.8444,"lon":-116.6351,"sport":5,"title":"Descanso Wall","total":38,"trad":1},{"boulder":0,"lat":33.1607,"lon":-117.046,"sport":1,"title":"Dixon Lake","total":39,"trad":27},{"boulder":0,"lat":32.8822,"lon":-116.641,"sport":38,"title":"Eagle Peak","total":40,"trad":3},{"boulder":0,"lat":32.9041,"lon":-116.818,"sport":40,"title":"El Cajon Mountain","total":50,"trad":22},{"boulder":0,"lat":32.7261,"lon":-116.72607,"sport":0,"title":"Lawson Peak","total":2,"trad":2},{"boulder":33,"lat":32.66388,"lon":-116.26003,"sport":8,"title":"McCain Valley","total":51,"trad":12},{"boulder":66,"lat":33.22432,"lon":-117.25797,"sport":0,"title":"Melrose Boulders","total":66,"trad":0},{"boulder":15,"lat":32.8187,"lon":-117.056,"sport":53,"title":"Mission Gorge","total":170,"trad":78},{"boulder":99,"lat":33.0063,"lon":-116.96,"sport":7,"title":"Mount Woodson","total":257,"trad":89},{"boulder":5,"lat":33.2525,"lon":-117.12329,"sport":1,"title":"Old Castle","total":38,"trad":24},{"boulder":0,"lat":32.603,"lon":-116.9071,"sport":3,"title":"Otay","total":3,"trad":0},{"boulder":0,"lat":32.9844,"lon":-116.9496,"sport":27,"title":"Poway Crags","total":33,"trad":9},{"boulder":12,"lat":32.9271,"lon":-117.1772,"sport":0,"title":"Rancho Penasquitos Canyon","total":12,"trad":0},{"boulder":67,"lat":32.85052,"lon":-117.02223,"sport":2,"title":"Santee Boulders","total":96,"trad":24},{"boulder":0,"lat":33.01319,"lon":-116.10989,"sport":0,"title":"Split Mountain","total":1,"trad":1},{"boulder":0,"lat":32.9599,"lon":-116.572,"sport":1,"title":"Stonewall Peak","total":23,"trad":19},{"boulder":1,"lat":32.631,"lon":-116.0788,"sport":16,"title":"Valley of the Moon","total":22,"trad":6},{"boulder":0,"lat":32.7157,"lon":-117.159,"sport":0,"title":"West Bernardo Hills","total":1,"trad":1},{"boulder":15,"lat":38.5684,"lon":-122.4406,"sport":4,"title":"Angwin","total":24,"trad":2},{"boulder":0,"lat":37.7655,"lon":-122.4368,"sport":1,"title":"Beaver Street Wall","total":4,"trad":3},{"boulder":5,"lat":37.8251,"lon":-122.5138,"sport":0,"title":"Black Sand Beach","total":5,"trad":0},{"boulder":1,"lat":37.81843,"lon":-122.28806,"sport":0,"title":"Buildering \/ Manufactured Walls","total":1,"trad":0},{"boulder":134,"lat":37.23062,"lon":-122.09577,"sport":93,"title":"Castle Rock Area","total":264,"trad":33},{"boulder":0,"lat":37.77778,"lon":-122.51362,"sport":0,"title":"Cliff House Boulders","total":0,"trad":0},{"boulder":2,"lat":37.5512,"lon":-122.0866,"sport":0,"title":"Coyote Hills","total":2,"trad":0},{"boulder":0,"lat":37.892,"lon":-122.2635,"sport":2,"title":"Cragmont Park","total":10,"trad":3},{"boulder":7,"lat":38.5361,"lon":-123.2415,"sport":0,"title":"Fort Ross","total":7,"trad":0},{"boulder":2,"lat":37.7408,"lon":-122.4398,"sport":0,"title":"Glen Canyon","total":2,"trad":0},{"boulder":2,"lat":37.8967,"lon":-122.2783,"sport":0,"title":"Great Stone Face Rock Park","total":2,"trad":0},{"boulder":10,"lat":37.88143,"lon":-122.24296,"sport":0,"title":"Grizzly Peak Boulders","total":11,"trad":0},{"boulder":2,"lat":37.52496,"lon":-121.8178,"sport":0,"title":"Indian Joe Caves","total":8,"trad":2},{"boulder":42,"lat":37.89218,"lon":-122.27269,"sport":0,"title":"Indian Rock","total":42,"trad":0},{"boulder":18,"lat":37.8886,"lon":-122.6327,"sport":23,"title":"Mickey's Beach","total":44,"trad":0},{"boulder":0,"lat":37.8817,"lon":-121.9146,"sport":21,"title":"Mount Diablo State Park","total":46,"trad":13},{"boulder":0,"lat":38.65267,"lon":-122.59982,"sport":132,"title":"Mount St. Helena","total":179,"trad":53},{"boulder":7,"lat":37.9291,"lon":-122.578,"sport":0,"title":"Mount Tamalpais","total":20,"trad":6},{"boulder":9,"lat":39.1925,"lon":-123.7586,"sport":0,"title":"Navarro Beach","total":9,"trad":3},{"boulder":0,"lat":38.0905,"lon":-122.9212,"sport":0,"title":"Point Reyes National Seashore","total":1,"trad":1},{"boulder":19,"lat":38.5174,"lon":-122.056,"sport":0,"title":"Putah Creek","total":19,"trad":0},{"boulder":5,"lat":37.8923,"lon":-122.2611,"sport":0,"title":"Remillard Park","total":15,"trad":0},{"boulder":4,"lat":37.9095,"lon":-122.4828,"sport":0,"title":"Ring Mountain","total":14,"trad":3},{"boulder":21,"lat":38.5706,"lon":-123.3209,"sport":13,"title":"Salt Point State Park","total":35,"trad":1},{"boulder":31,"lat":38.4326,"lon":-123.0737,"sport":10,"title":"Sonoma Coast State Park","total":52,"trad":7},{"boulder":3,"lat":38.8032,"lon":-123.0132,"sport":5,"title":"Squaw Cliff Area","total":9,"trad":1},{"boulder":29,"lat":38.443,"lon":-122.5052,"sport":0,"title":"Sugarloaf Ridge State Park","total":29,"trad":0},{"boulder":0,"lat":37.2317,"lon":-121.8613,"sport":0,"title":"The Mazzones","total":0,"trad":0},{"boulder":80,"lat":38.3767,"lon":-121.9845,"sport":0,"title":"The Nut Tree Boulders","total":80,"trad":0},{"boulder":0,"lat":38.7804,"lon":-122.7202,"sport":0,"title":"The Philosopher's Stone","total":1,"trad":1},{"boulder":22,"lat":33.7426,"lon":-116.7682,"sport":0,"title":"Backcountry Bouldering","total":30,"trad":8},{"boulder":150,"lat":33.8263,"lon":-116.7591,"sport":0,"title":"Black Mountain","total":150,"trad":0},{"boulder":0,"lat":33.88316,"lon":-116.75031,"sport":0,"title":"Cabazon Canyon","total":0,"trad":0},{"boulder":0,"lat":33.8293,"lon":-116.5709,"sport":10,"title":"Dry Falls ","total":11,"trad":5},{"boulder":0,"lat":33.6321,"lon":-116.6414,"sport":0,"title":"Garner Valley","total":2,"trad":2},{"boulder":8,"lat":33.7653,"lon":-116.6867,"sport":0,"title":"Humber Park","total":8,"trad":0},{"boulder":57,"lat":33.7441,"lon":-116.7225,"sport":0,"title":"Idyllwild County Park","total":57,"trad":0},{"boulder":0,"lat":33.8151,"lon":-116.68,"sport":0,"title":"Mt. San Jacinto","total":1,"trad":0},{"boulder":44,"lat":33.73493,"lon":-116.69666,"sport":1,"title":"South Ridge Boulders","total":44,"trad":0},{"boulder":387,"lat":33.8062,"lon":-116.6367,"sport":0,"title":"The Tramway","total":388,"trad":1},{"boulder":0,"lat":36.6602,"lon":-118.8837,"sport":0,"title":"Big Baldy","total":3,"trad":3},{"boulder":0,"lat":36.77106,"lon":-118.47295,"sport":0,"title":"Bubbs Creek Wall","total":3,"trad":3},{"boulder":0,"lat":36.7372,"lon":-118.8607,"sport":2,"title":"Buck Rock","total":2,"trad":0},{"boulder":0,"lat":36.5027,"lon":-118.7141,"sport":0,"title":"Castle Rocks","total":4,"trad":4},{"boulder":0,"lat":36.654,"lon":-118.8667,"sport":4,"title":"Chimney Rocks","total":8,"trad":5},{"boulder":0,"lat":36.43879,"lon":-118.76335,"sport":1,"title":"Danland","total":17,"trad":16},{"boulder":0,"lat":36.56305,"lon":-118.57908,"sport":0,"title":"Hamilton Lakes and Valhalla","total":2,"trad":2},{"boulder":3,"lat":36.5205,"lon":-118.7735,"sport":0,"title":"Hospital Rock Area","total":19,"trad":15},{"boulder":0,"lat":36.48966,"lon":-118.86411,"sport":0,"title":"Kaweah Lake","total":1,"trad":0},{"boulder":0,"lat":36.7893,"lon":-118.6729,"sport":4,"title":"Kings Canyon","total":9,"trad":6},{"boulder":0,"lat":36.6141,"lon":-118.8049,"sport":4,"title":"Little Baldy","total":13,"trad":9},{"boulder":0,"lat":36.63347,"lon":-118.69143,"sport":0,"title":"Lower Tokopah Dome","total":5,"trad":5},{"boulder":0,"lat":36.5442,"lon":-118.7642,"sport":2,"title":"Moro Rock (SEKI)","total":17,"trad":14},{"boulder":0,"lat":36.64095,"lon":-118.7031,"sport":0,"title":"Santa Cruz Dome","total":2,"trad":2},{"boulder":61,"lat":36.6029,"lon":-118.7581,"sport":0,"title":"SEKI Bouldering","total":62,"trad":0},{"boulder":0,"lat":36.5822,"lon":-118.567,"sport":0,"title":"Tamarack Lake Area","total":1,"trad":1},{"boulder":0,"lat":36.9188,"lon":-118.781,"sport":0,"title":"Tehipite Dome","total":1,"trad":1},{"boulder":0,"lat":36.8916,"lon":-118.7582,"sport":0,"title":"The Gorge of Despair","total":4,"trad":4},{"boulder":0,"lat":36.9079,"lon":-118.854,"sport":0,"title":"The Obelisk","total":4,"trad":4},{"boulder":0,"lat":36.60746,"lon":-118.69917,"sport":0,"title":"The Watchtower","total":4,"trad":2},{"boulder":6,"lat":38.45628,"lon":-119.46045,"sport":0,"title":"395 Boulder","total":6,"trad":0},{"boulder":988,"lat":37.3612,"lon":-118.3954,"sport":579,"title":"Bishop Area","total":1790,"trad":254},{"boulder":0,"lat":36.91611,"lon":-118.24631,"sport":0,"title":"Central Owens Valley","total":0,"trad":0},{"boulder":0,"lat":37.7599,"lon":-118.664,"sport":14,"title":"Eastern Hills","total":41,"trad":29},{"boulder":0,"lat":35.97175,"lon":-117.91079,"sport":0,"title":"Fossil Falls","total":3,"trad":1},{"boulder":0,"lat":35.7155,"lon":-117.9743,"sport":0,"title":"Indian Wells Canyon","total":10,"trad":8},{"boulder":213,"lat":37.7805,"lon":-119.0755,"sport":5,"title":"June Lake Area","total":223,"trad":5},{"boulder":32,"lat":37.93984,"lon":-119.1362,"sport":24,"title":"Lee Vining Canyon and Tioga Road","total":97,"trad":33},{"boulder":551,"lat":37.6468,"lon":-118.9659,"sport":294,"title":"Mammoth Lakes Area","total":962,"trad":109},{"boulder":0,"lat":38.40273,"lon":-119.45365,"sport":0,"title":"Walker River Canyon","total":7,"trad":6},{"boulder":1,"lat":36.6062,"lon":-118.0637,"sport":199,"title":"Whitney\/Lone Pine Area","total":316,"trad":124},{"boulder":0,"lat":36.5096,"lon":-118.5356,"sport":0,"title":"Balloon Dome","total":0,"trad":0},{"boulder":0,"lat":37.0749,"lon":-118.9819,"sport":17,"title":"Courtright Reservoir","total":49,"trad":35},{"boulder":0,"lat":36.00019,"lon":-118.13569,"sport":7,"title":"Fish Creek near Kennedy Meadows","total":9,"trad":1},{"boulder":0,"lat":37.454,"lon":-119.536,"sport":11,"title":"Fresno Dome aka \"Wamello\"","total":21,"trad":10},{"boulder":0,"lat":37.14955,"lon":-119.30122,"sport":0,"title":"Rise Again Rock","total":1,"trad":1},{"boulder":21,"lat":37.15351,"lon":-119.29838,"sport":0,"title":"Shaver Lake Bouldering","total":21,"trad":0},{"boulder":0,"lat":37.35,"lon":-119.4276,"sport":33,"title":"Shuteye Ridge","total":48,"trad":16},{"boulder":0,"lat":37.0376,"lon":-119.4074,"sport":14,"title":"Squarenail","total":17,"trad":3},{"boulder":10,"lat":36.1214,"lon":-118.5044,"sport":22,"title":"The Needles \/ Kern River","total":144,"trad":119},{"boulder":0,"lat":37.033,"lon":-119.387,"sport":11,"title":"Tollhouse Rock","total":31,"trad":21},{"boulder":4,"lat":37.4217,"lon":-119.4855,"sport":0,"title":"Upper Jackass Lake","total":4,"trad":0},{"boulder":0,"lat":37.2914,"lon":-119.1022,"sport":0,"title":"Wilderness Wall","total":3,"trad":0},{"boulder":0,"lat":37.1667,"lon":-119.3094,"sport":1,"title":"Yeti Dome (aka Musick Mountain)","total":1,"trad":0},{"boulder":38,"lat":38.74661,"lon":-120.62335,"sport":122,"title":"Highway 50 Corridor","total":541,"trad":368},{"boulder":187,"lat":39.2768,"lon":-120.71298,"sport":292,"title":"I-80 Corridor","total":688,"trad":200},{"boulder":15,"lat":38.91344,"lon":-120.00468,"sport":53,"title":"South Shore","total":198,"trad":131},{"boulder":2,"lat":39.31865,"lon":-120.19705,"sport":78,"title":"Truckee River Canyon","total":119,"trad":35},{"boulder":11,"lat":39.05348,"lon":-120.11721,"sport":28,"title":"West Shore","total":108,"trad":60},{"boulder":0,"lat":33.771,"lon":-116.696,"sport":7,"title":"Suicide Rock","total":245,"trad":231},{"boulder":0,"lat":33.7602,"lon":-116.684,"sport":3,"title":"Tahquitz Rock","total":144,"trad":142},{"boulder":0,"lat":33.76306,"lon":-116.67715,"sport":0,"title":"The Others","total":4,"trad":4},{"boulder":0,"lat":37.9463,"lon":-119.788,"sport":0,"title":"Hetch Hetchy","total":5,"trad":2},{"boulder":2,"lat":37.69379,"lon":-119.72668,"sport":46,"title":"Lower Merced River Canyon","total":300,"trad":260},{"boulder":0,"lat":37.6454,"lon":-119.5688,"sport":0,"title":"Southern Yosemite","total":3,"trad":3},{"boulder":50,"lat":37.8308,"lon":-119.471,"sport":77,"title":"Tuolumne Meadows","total":405,"trad":286},{"boulder":116,"lat":37.7436,"lon":-119.599,"sport":69,"title":"Yosemite Valley","total":616,"trad":406},{"boulder":0,"lat":39.5388,"lon":-106.1364,"sport":9,"title":"Halfway Rock","total":9,"trad":0},{"boulder":0,"lat":39.5723,"lon":-106.111,"sport":2,"title":"Mount Royal (near Frisco)","total":5,"trad":3},{"boulder":0,"lat":39.52888,"lon":-106.13874,"sport":12,"title":"Officer's Gulch West","total":14,"trad":1},{"boulder":0,"lat":39.5559,"lon":-106.13165,"sport":0,"title":"Officer's Wall","total":1,"trad":1},{"boulder":1,"lat":39.5559,"lon":-106.13165,"sport":9,"title":"Sunshine Buttess (aka Wichita Wall)","total":14,"trad":11},{"boulder":0,"lat":39.5376,"lon":-106.1383,"sport":3,"title":"The Diamond Wall","total":3,"trad":0},{"boulder":0,"lat":39.5559,"lon":-106.13165,"sport":6,"title":"The Dome","total":14,"trad":12},{"boulder":0,"lat":39.5723,"lon":-106.117,"sport":2,"title":"The Shire","total":3,"trad":0},{"boulder":0,"lat":39.5679,"lon":-106.1227,"sport":12,"title":"White Cliff","total":15,"trad":5},{"boulder":0,"lat":37.4393,"lon":-108.0806,"sport":0,"title":"Babcock Peak","total":3,"trad":3},{"boulder":0,"lat":37.5772,"lon":-105.485,"sport":0,"title":"Blanca Peak","total":2,"trad":2},{"boulder":0,"lat":40.2565,"lon":-105.6569,"sport":0,"title":"Buffalo Mountain","total":1,"trad":0},{"boulder":0,"lat":39.1503,"lon":-107.082,"sport":0,"title":"Capitol Peak","total":4,"trad":4},{"boulder":0,"lat":39.02818,"lon":-107.11696,"sport":0,"title":"Chimneys of Treasure","total":2,"trad":2},{"boulder":0,"lat":37.58298,"lon":-105.49261,"sport":0,"title":"Ellingwood Point","total":1,"trad":1},{"boulder":0,"lat":39.40883,"lon":-106.12716,"sport":0,"title":"Fletcher Peak to Atlantic Peak","total":0,"trad":0},{"boulder":0,"lat":40.2565,"lon":-105.6569,"sport":0,"title":"Fluted Peak","total":1,"trad":1},{"boulder":0,"lat":39.12916,"lon":-106.50559,"sport":1,"title":"Frasco's Toe","total":1,"trad":1},{"boulder":0,"lat":39.69348,"lon":-106.27282,"sport":0,"title":"Gore Mountain Range","total":5,"trad":5},{"boulder":0,"lat":39.0425,"lon":-106.597,"sport":0,"title":"Grizzly Peak","total":1,"trad":0},{"boulder":0,"lat":40.05011,"lon":-105.64007,"sport":0,"title":"Indian Peaks","total":52,"trad":40},{"boulder":0,"lat":39.0294,"lon":-106.473,"sport":0,"title":"La Plata","total":3,"trad":1},{"boulder":0,"lat":40.2565,"lon":-105.6569,"sport":0,"title":"Little Bear Peak","total":3,"trad":3},{"boulder":0,"lat":39.0708,"lon":-106.989,"sport":0,"title":"Maroon Bells","total":3,"trad":2},{"boulder":0,"lat":39.4681,"lon":-106.479,"sport":0,"title":"Mount of the Holy Cross","total":1,"trad":0},{"boulder":102,"lat":39.5886,"lon":-105.643,"sport":9,"title":"Mt. Evans","total":181,"trad":69},{"boulder":0,"lat":37.93917,"lon":-107.80766,"sport":0,"title":"Northern San Juans","total":8,"trad":8},{"boulder":0,"lat":39.4231,"lon":-106.123,"sport":0,"title":"Pacific Peak","total":1,"trad":1},{"boulder":0,"lat":39.0714,"lon":-106.95,"sport":0,"title":"Pyramid Peak","total":3,"trad":2},{"boulder":0,"lat":39.3972,"lon":-106.106,"sport":1,"title":"Quandary Peak","total":6,"trad":5},{"boulder":100,"lat":40.3753,"lon":-105.616,"sport":10,"title":"RMNP - Rock","total":357,"trad":246},{"boulder":0,"lat":37.7645,"lon":-107.826,"sport":0,"title":"Rolling Mountain","total":1,"trad":1},{"boulder":0,"lat":37.6566,"lon":-107.6015,"sport":0,"title":"San Juans","total":40,"trad":39},{"boulder":0,"lat":39.59176,"lon":-105.65685,"sport":0,"title":"Sawtooth Ridge, Mt. Bierstadt\/Evans combo","total":0,"trad":0},{"boulder":0,"lat":39.47281,"lon":-106.10251,"sport":0,"title":"Tenmile Range","total":2,"trad":2},{"boulder":0,"lat":39.7153,"lon":-105.9114,"sport":0,"title":"The Citadel","total":1,"trad":1},{"boulder":0,"lat":37.9667,"lon":-105.585,"sport":0,"title":"The Crestones","total":7,"trad":7},{"boulder":0,"lat":40.2565,"lon":-105.6569,"sport":0,"title":"Tijeras Peak","total":6,"trad":6},{"boulder":0,"lat":39.6428,"lon":-105.821,"sport":0,"title":"Torrey's Peak","total":4,"trad":1},{"boulder":81,"lat":40.0024,"lon":-105.4102,"sport":848,"title":"Boulder Canyon","total":1534,"trad":762},{"boulder":40,"lat":40.0068,"lon":-105.266,"sport":0,"title":"CU Campus","total":40,"trad":0},{"boulder":101,"lat":39.9318,"lon":-105.2813,"sport":116,"title":"Eldorado Canyon SP","total":1111,"trad":935},{"boulder":1,"lat":39.9204,"lon":-105.288,"sport":96,"title":"Eldorado Mountain","total":132,"trad":47},{"boulder":247,"lat":40.0014,"lon":-105.296,"sport":0,"title":"Flagstaff","total":252,"trad":5},{"boulder":217,"lat":39.9828,"lon":-105.289,"sport":145,"title":"Flatirons","total":1007,"trad":648},{"boulder":50,"lat":40.027,"lon":-105.301,"sport":0,"title":"Mount Sanitas","total":53,"trad":3},{"boulder":0,"lat":40.02036,"lon":-105.28556,"sport":0,"title":"Old Mapleton Elementary School","total":0,"trad":0},{"boulder":9,"lat":40.0102,"lon":-105.4066,"sport":120,"title":"Upper Dream Canyon","total":167,"trad":49},{"boulder":1,"lat":38.8811,"lon":-106.1485,"sport":3,"title":"Almost A Tunnel","total":5,"trad":1},{"boulder":0,"lat":38.8388,"lon":-106.1329,"sport":1,"title":"American Wall","total":1,"trad":0},{"boulder":0,"lat":38.8388,"lon":-106.1329,"sport":0,"title":"Below The Arch Crag","total":3,"trad":3},{"boulder":0,"lat":38.8388,"lon":-106.1329,"sport":1,"title":"Billy's Buttress","total":1,"trad":0},{"boulder":0,"lat":38.88407,"lon":-106.14983,"sport":8,"title":"Bob's Rock","total":13,"trad":6},{"boulder":0,"lat":38.75344,"lon":-106.02818,"sport":0,"title":"Browns Canyon National Monument ","total":0,"trad":0},{"boulder":0,"lat":38.8388,"lon":-106.1329,"sport":0,"title":"Bullet Review Rock","total":2,"trad":2},{"boulder":3,"lat":38.8388,"lon":-106.1329,"sport":0,"title":"Cascade Boulders","total":3,"trad":0},{"boulder":0,"lat":38.8481,"lon":-106.0602,"sport":2,"title":"Cat's Claw Crag (C3)","total":2,"trad":0},{"boulder":8,"lat":38.8388,"lon":-106.1329,"sport":0,"title":"Chalk Creek Boulder aka Boulder of Sorrow","total":8,"trad":0},{"boulder":0,"lat":38.8388,"lon":-106.1329,"sport":4,"title":"Chief's Head","total":6,"trad":4},{"boulder":0,"lat":38.8388,"lon":-106.1329,"sport":4,"title":"Chocolate Tower","total":4,"trad":1},{"boulder":0,"lat":38.89867,"lon":-106.0917,"sport":1,"title":"Christmas Crag","total":3,"trad":3},{"boulder":0,"lat":38.91645,"lon":-106.10438,"sport":2,"title":"Davis Face","total":6,"trad":4},{"boulder":1,"lat":38.8435,"lon":-106.1202,"sport":0,"title":"Downtown Boulders","total":1,"trad":0},{"boulder":0,"lat":38.88463,"lon":-106.15182,"sport":4,"title":"Elephant Rock","total":7,"trad":3},{"boulder":0,"lat":38.81152,"lon":-106.34988,"sport":6,"title":"Holy Water Wall","total":8,"trad":1},{"boulder":0,"lat":38.8388,"lon":-106.1329,"sport":1,"title":"Loaf of Bread & Bun (in the Land of Crank)","total":2,"trad":1},{"boulder":15,"lat":38.75645,"lon":-106.07552,"sport":0,"title":"Nathrop Blocks","total":15,"trad":0},{"boulder":0,"lat":38.8388,"lon":-106.1329,"sport":3,"title":"Pleasure Dome","total":3,"trad":0},{"boulder":0,"lat":38.87921,"lon":-106.14689,"sport":5,"title":"Poncho's Vista","total":7,"trad":2},{"boulder":0,"lat":38.8388,"lon":-106.1329,"sport":6,"title":"Pump Station","total":12,"trad":7},{"boulder":8,"lat":38.8388,"lon":-106.1329,"sport":0,"title":"S Curve Boulders","total":8,"trad":0},{"boulder":13,"lat":38.8406,"lon":-106.1057,"sport":0,"title":"Sleeping Indian","total":13,"trad":0},{"boulder":0,"lat":38.88506,"lon":-106.13779,"sport":2,"title":"South Split Rock","total":3,"trad":0},{"boulder":0,"lat":38.8388,"lon":-106.1329,"sport":4,"title":"Split Rock","total":6,"trad":5},{"boulder":0,"lat":39.04041,"lon":-106.26336,"sport":1,"title":"The Granite Block","total":2,"trad":2},{"boulder":0,"lat":38.8797,"lon":-106.14731,"sport":7,"title":"The Leaning Wall","total":10,"trad":10},{"boulder":0,"lat":38.8388,"lon":-106.1329,"sport":0,"title":"The Milt Wall","total":2,"trad":2},{"boulder":0,"lat":38.86876,"lon":-106.14413,"sport":7,"title":"The River Chamber","total":12,"trad":5},{"boulder":0,"lat":38.85063,"lon":-106.06629,"sport":0,"title":"The Rock Pile","total":1,"trad":1},{"boulder":0,"lat":38.88925,"lon":-106.14019,"sport":6,"title":"The Roost","total":6,"trad":0},{"boulder":0,"lat":38.8388,"lon":-106.1329,"sport":1,"title":"There is Spice to Life Tower.","total":1,"trad":0},{"boulder":0,"lat":38.8388,"lon":-106.1329,"sport":4,"title":"Tool Wall \/ Tool Tower","total":4,"trad":0},{"boulder":0,"lat":38.88771,"lon":-106.1382,"sport":8,"title":"Transmitter Tower","total":9,"trad":1},{"boulder":0,"lat":38.8388,"lon":-106.1329,"sport":1,"title":"Turbo Big Tower","total":1,"trad":0},{"boulder":0,"lat":38.88191,"lon":-106.14755,"sport":10,"title":"Turtle Rocks","total":18,"trad":8},{"boulder":11,"lat":38.8812,"lon":-106.14749,"sport":0,"title":"Turtle Rocks Bouldering Area","total":11,"trad":0},{"boulder":4,"lat":38.6296,"lon":-105.223,"sport":852,"title":"Shelf Road","total":883,"trad":39},{"boulder":0,"lat":38.4471,"lon":-105.216,"sport":5,"title":"Table Mountain South","total":5,"trad":0},{"boulder":29,"lat":39.4044,"lon":-107.22,"sport":3,"title":"Coal Creek Boulders","total":36,"trad":0},{"boulder":0,"lat":39.07142,"lon":-107.15356,"sport":4,"title":"Lizard Lake","total":4,"trad":0},{"boulder":44,"lat":39.19019,"lon":-107.23234,"sport":9,"title":"Redstone Area","total":56,"trad":3},{"boulder":4,"lat":39.4044,"lon":-107.22,"sport":22,"title":"The Frying Pan","total":36,"trad":11},{"boulder":0,"lat":39.23226,"lon":-107.22854,"sport":43,"title":"The Narrows","total":59,"trad":21},{"boulder":0,"lat":39.59229,"lon":-105.67245,"sport":0,"title":"Bierstadt Ice","total":0,"trad":0},{"boulder":0,"lat":40.4172,"lon":-105.3724,"sport":0,"title":"Big Thompson Canyon Ice","total":17,"trad":15},{"boulder":0,"lat":38.5388,"lon":-107.70155,"sport":0,"title":"Black Canyon National Park (Ice)","total":2,"trad":1},{"boulder":0,"lat":38.9936,"lon":-105.93,"sport":0,"title":"Black Hawk Ice","total":0,"trad":0},{"boulder":0,"lat":38.4391,"lon":-107.37745,"sport":0,"title":"Blue Mesa (near Gunnison)","total":6,"trad":4},{"boulder":0,"lat":39.98116,"lon":-105.45459,"sport":1,"title":"Boulder Canyon - Ice","total":21,"trad":20},{"boulder":0,"lat":40.0779,"lon":-105.5728,"sport":0,"title":"Brainard Lake Cirque - Ice","total":1,"trad":0},{"boulder":0,"lat":38.9936,"lon":-105.93,"sport":0,"title":"Buena Vista","total":3,"trad":0},{"boulder":0,"lat":39.329,"lon":-104.738,"sport":0,"title":"Castlewood Canyon State Park - Ice","total":4,"trad":3},{"boulder":0,"lat":39.74128,"lon":-105.41402,"sport":0,"title":"Clear Creek Canyon - Ice","total":16,"trad":12},{"boulder":0,"lat":38.9936,"lon":-105.93,"sport":0,"title":"Coal Creek Canyon","total":2,"trad":2},{"boulder":0,"lat":38.9936,"lon":-105.93,"sport":0,"title":"Colorado National Monument (Ice)","total":2,"trad":0},{"boulder":0,"lat":38.83385,"lon":-104.83068,"sport":0,"title":"Colorado Springs & vicinity","total":20,"trad":10},{"boulder":0,"lat":38.86528,"lon":-106.98583,"sport":0,"title":"Crested Butte","total":1,"trad":1},{"boulder":0,"lat":38.9936,"lon":-105.93,"sport":4,"title":"Durango","total":23,"trad":14},{"boulder":0,"lat":38.9936,"lon":-105.93,"sport":0,"title":"Eldora","total":2,"trad":1},{"boulder":0,"lat":38.9936,"lon":-105.93,"sport":0,"title":"Evergreen - Bear Creek ice","total":0,"trad":0},{"boulder":0,"lat":39.988,"lon":-105.29108,"sport":0,"title":"Flatirons","total":7,"trad":4},{"boulder":0,"lat":38.9936,"lon":-105.93,"sport":0,"title":"Gateway\/Naturita","total":1,"trad":0},{"boulder":0,"lat":38.9936,"lon":-105.93,"sport":0,"title":"Georgetown Ice","total":1,"trad":1},{"boulder":0,"lat":38.9936,"lon":-105.93,"sport":0,"title":"Glenwood Canyon Ice","total":7,"trad":2},{"boulder":0,"lat":39.0081,"lon":-108.1924,"sport":0,"title":"Grand Mesa","total":2,"trad":0},{"boulder":0,"lat":39.47327,"lon":-106.47048,"sport":0,"title":"Holy Cross\/Notch Mountain","total":2,"trad":0},{"boulder":0,"lat":39.35768,"lon":-106.08037,"sport":0,"title":"Hoosier Pass\/Lincoln Fall","total":20,"trad":14},{"boulder":0,"lat":39.92872,"lon":-105.65534,"sport":0,"title":"Indian Peaks Wilderness Area","total":9,"trad":3},{"boulder":0,"lat":38.02563,"lon":-107.32047,"sport":2,"title":"Lake City","total":18,"trad":3},{"boulder":0,"lat":39.25143,"lon":-106.2953,"sport":0,"title":"Leadville Ice","total":2,"trad":2},{"boulder":0,"lat":39.74911,"lon":-105.24484,"sport":0,"title":"Lookout Mountain Dry Tooling Area","total":3,"trad":3},{"boulder":0,"lat":39.6161,"lon":-105.2142,"sport":0,"title":"Lover's Leap","total":1,"trad":0},{"boulder":0,"lat":39.6429,"lon":-105.7827,"sport":0,"title":"McClellan Mountain (Gray's & Torrey's area)","total":1,"trad":0},{"boulder":0,"lat":38.9936,"lon":-105.93,"sport":0,"title":"Moffatt Tunnel","total":5,"trad":5},{"boulder":0,"lat":39.5886,"lon":-105.643,"sport":0,"title":"Mt. Evans - mixed, couloirs","total":26,"trad":13},{"boulder":0,"lat":39.7749,"lon":-105.19612,"sport":0,"title":"North Table Mountain","total":2,"trad":1},{"boulder":0,"lat":38.02432,"lon":-107.67134,"sport":24,"title":"Ouray (Ice\/Mixed)","total":191,"trad":110},{"boulder":0,"lat":38.9936,"lon":-105.93,"sport":0,"title":"Parachute","total":1,"trad":0},{"boulder":0,"lat":40.66387,"lon":-105.18941,"sport":0,"title":"Poudre Canyon","total":8,"trad":0},{"boulder":0,"lat":39.38688,"lon":-106.09973,"sport":0,"title":"Quandary Peak\/Blue Lakes","total":14,"trad":14},{"boulder":0,"lat":38.9936,"lon":-105.93,"sport":0,"title":"Redstone","total":11,"trad":8},{"boulder":0,"lat":38.9936,"lon":-105.93,"sport":0,"title":"Rifle Mountain State Park","total":4,"trad":2},{"boulder":0,"lat":40.3753,"lon":-105.616,"sport":3,"title":"RMNP - Mixed\/Ice","total":193,"trad":145},{"boulder":0,"lat":38.9936,"lon":-105.93,"sport":0,"title":"Royal Gorge\/Canon City","total":1,"trad":1},{"boulder":0,"lat":38.9936,"lon":-105.93,"sport":0,"title":"Silverplume & vicinity","total":4,"trad":4},{"boulder":0,"lat":37.81076,"lon":-107.66481,"sport":2,"title":"Silverton","total":34,"trad":18},{"boulder":0,"lat":38.9936,"lon":-105.93,"sport":3,"title":"St. Vrain ice","total":9,"trad":8},{"boulder":0,"lat":39.51043,"lon":-105.39442,"sport":0,"title":"Staunton State Park Ice","total":1,"trad":0},{"boulder":0,"lat":38.9936,"lon":-105.93,"sport":0,"title":"Steamboat Springs","total":1,"trad":0},{"boulder":0,"lat":37.9355,"lon":-107.803,"sport":0,"title":"Telluride","total":18,"trad":8},{"boulder":0,"lat":38.9936,"lon":-105.93,"sport":1,"title":"Tenmile Canyon aka Officer's Gulch","total":15,"trad":13},{"boulder":0,"lat":38.9936,"lon":-105.93,"sport":0,"title":"Unaweep Canyon","total":7,"trad":0},{"boulder":0,"lat":39.6459,"lon":-106.332,"sport":35,"title":"Vail Ice","total":95,"trad":50},{"boulder":0,"lat":38.9936,"lon":-105.93,"sport":0,"title":"Wolf Creek Pass\/San Luis Valley Ice","total":56,"trad":13},{"boulder":0,"lat":38.8269,"lon":-104.793,"sport":0,"title":"Air Force Academy","total":13,"trad":12},{"boulder":2,"lat":38.84699,"lon":-104.82541,"sport":0,"title":"Colorado College","total":5,"trad":1},{"boulder":0,"lat":38.89234,"lon":-104.90591,"sport":4,"title":"Ed Rock","total":4,"trad":0},{"boulder":22,"lat":38.8788,"lon":-104.87,"sport":71,"title":"Garden of the Gods","total":141,"trad":52},{"boulder":17,"lat":39.07771,"lon":-104.91859,"sport":0,"title":"Mt. Herman's Baby James Bouldering area","total":17,"trad":0},{"boulder":0,"lat":38.8269,"lon":-104.793,"sport":0,"title":"Mt. Manitou","total":1,"trad":1},{"boulder":4,"lat":38.7925,"lon":-104.8758,"sport":33,"title":"North Cheyenne Canyon","total":59,"trad":25},{"boulder":0,"lat":38.77168,"lon":-104.87853,"sport":16,"title":"Old Stage Road","total":24,"trad":10},{"boulder":0,"lat":38.87905,"lon":-105.0961,"sport":0,"title":"Pangborn's Pinnacle","total":1,"trad":1},{"boulder":2,"lat":38.841,"lon":-105.0426,"sport":0,"title":"Pike's Peak","total":5,"trad":3},{"boulder":1,"lat":38.8269,"lon":-104.793,"sport":0,"title":"Rampart Park","total":2,"trad":1},{"boulder":0,"lat":38.8536,"lon":-104.8803,"sport":78,"title":"Red Rock Canyon Open Space","total":84,"trad":4},{"boulder":3,"lat":38.853,"lon":-104.936,"sport":0,"title":"Ruxton Canyon, Manitou Springs","total":4,"trad":1},{"boulder":0,"lat":38.8269,"lon":-104.793,"sport":0,"title":"Sentinel and Specimen Rocks","total":0,"trad":0},{"boulder":0,"lat":38.9894,"lon":-104.9102,"sport":0,"title":"Stanley Canyon","total":0,"trad":0},{"boulder":0,"lat":38.8487,"lon":-104.90822,"sport":0,"title":"Tenney Crag","total":1,"trad":1},{"boulder":1,"lat":38.8269,"lon":-104.793,"sport":0,"title":"Ute Pass","total":1,"trad":0},{"boulder":85,"lat":38.9118,"lon":-104.857,"sport":1,"title":"Ute Valley Park","total":87,"trad":0},{"boulder":0,"lat":38.8883,"lon":-104.9172,"sport":6,"title":"William's Canyon","total":6,"trad":0},{"boulder":0,"lat":38.9851,"lon":-106.97751,"sport":0,"title":"Avery Peak","total":1,"trad":1},{"boulder":0,"lat":39.05822,"lon":-107.09076,"sport":0,"title":"Crystal","total":0,"trad":0},{"boulder":0,"lat":38.8996,"lon":-106.9684,"sport":0,"title":"Mt. Crested Butte","total":2,"trad":2},{"boulder":49,"lat":38.8996,"lon":-106.9684,"sport":0,"title":"Skyland Boulders","total":49,"trad":0},{"boulder":0,"lat":39.3746,"lon":-104.864,"sport":0,"title":"Castle Rock","total":4,"trad":2},{"boulder":88,"lat":39.33111,"lon":-104.73864,"sport":125,"title":"Castlewood Canyon SP","total":389,"trad":82},{"boulder":0,"lat":39.3746,"lon":-104.864,"sport":0,"title":"Castlewood Ranch Boulders","total":0,"trad":0},{"boulder":0,"lat":39.3746,"lon":-104.864,"sport":0,"title":"Centennial Central Park","total":0,"trad":0},{"boulder":1,"lat":39.5407,"lon":-105.1783,"sport":0,"title":"Deer Creek Canyon Cave","total":1,"trad":0},{"boulder":0,"lat":39.3746,"lon":-104.864,"sport":0,"title":"Monument Rock","total":2,"trad":1},{"boulder":1,"lat":39.3746,"lon":-104.864,"sport":0,"title":"Park Meadows Mall","total":2,"trad":1},{"boulder":0,"lat":39.48384,"lon":-105.11112,"sport":0,"title":"Waterton Canyon","total":0,"trad":0},{"boulder":0,"lat":39.3746,"lon":-104.864,"sport":0,"title":"Westlands Park\/God's Hands ","total":0,"trad":0},{"boulder":11,"lat":37.3122,"lon":-107.8674,"sport":0,"title":"Animas Mountain","total":11,"trad":0},{"boulder":6,"lat":37.3409,"lon":-107.7999,"sport":0,"title":"Area 071","total":6,"trad":0},{"boulder":2,"lat":37.65774,"lon":-107.80962,"sport":39,"title":"Cascade Canyon","total":45,"trad":4},{"boulder":2,"lat":37.2675,"lon":-107.88,"sport":0,"title":"Dry Grotto","total":2,"trad":0},{"boulder":0,"lat":37.3183,"lon":-107.836,"sport":47,"title":"East  Animas","total":113,"trad":79},{"boulder":0,"lat":37.3359,"lon":-107.8701,"sport":0,"title":"Falls Creek Cliff","total":2,"trad":1},{"boulder":0,"lat":37.2675,"lon":-107.88,"sport":0,"title":"Fort Lewis College","total":0,"trad":0},{"boulder":0,"lat":37.45639,"lon":-107.80522,"sport":18,"title":"Fume Wall","total":18,"trad":0},{"boulder":0,"lat":37.51721,"lon":-107.81582,"sport":36,"title":"Golf Wall","total":36,"trad":0},{"boulder":1,"lat":37.2675,"lon":-107.88,"sport":0,"title":"Haflin Creek","total":1,"trad":0},{"boulder":0,"lat":37.4289,"lon":-107.8369,"sport":1,"title":"Hermosa","total":60,"trad":45},{"boulder":0,"lat":37.2633,"lon":-107.8706,"sport":0,"title":"Horse Gulch","total":3,"trad":3},{"boulder":0,"lat":37.5121,"lon":-107.8277,"sport":0,"title":"Julia's Spire","total":2,"trad":2},{"boulder":10,"lat":37.3326,"lon":-107.9028,"sport":16,"title":"Junction Creek","total":43,"trad":24},{"boulder":0,"lat":37.4651,"lon":-107.678,"sport":37,"title":"Lemon Reservoir","total":42,"trad":13},{"boulder":3,"lat":37.31,"lon":-107.9432,"sport":0,"title":"Lightner Creek","total":3,"trad":0},{"boulder":0,"lat":37.29086,"lon":-107.91247,"sport":0,"title":"Perins Peak","total":6,"trad":3},{"boulder":0,"lat":37.447,"lon":-107.5053,"sport":1,"title":"Pine River Trad","total":15,"trad":14},{"boulder":0,"lat":37.2234,"lon":-107.8713,"sport":1,"title":"Purple Cliffs","total":1,"trad":0},{"boulder":0,"lat":37.69904,"lon":-107.77615,"sport":5,"title":"RV Wall","total":6,"trad":1},{"boulder":51,"lat":37.3097,"lon":-107.8849,"sport":0,"title":"Sailing Hawks","total":51,"trad":0},{"boulder":0,"lat":37.26074,"lon":-107.88392,"sport":2,"title":"Smelter Mountain","total":4,"trad":2},{"boulder":0,"lat":37.2288,"lon":-107.8767,"sport":0,"title":"The Rifle Range","total":0,"trad":0},{"boulder":35,"lat":37.2675,"lon":-107.88,"sport":5,"title":"Turtle Lake","total":47,"trad":9},{"boulder":0,"lat":37.2675,"lon":-107.88,"sport":12,"title":"Vallecito Crags","total":24,"trad":14},{"boulder":8,"lat":37.31105,"lon":-107.86121,"sport":5,"title":"X Rock","total":48,"trad":17},{"boulder":2,"lat":39.6429,"lon":-106.379,"sport":0,"title":"Bikini Bottom","total":2,"trad":0},{"boulder":0,"lat":39.5077,"lon":-106.3782,"sport":3,"title":"Gilman Canyon","total":4,"trad":1},{"boulder":0,"lat":39.4733,"lon":-106.3715,"sport":12,"title":"Homestake Road Crag","total":12,"trad":0},{"boulder":0,"lat":39.48929,"lon":-106.3667,"sport":12,"title":"Hornsilver","total":14,"trad":3},{"boulder":0,"lat":39.4073,"lon":-106.6555,"sport":55,"title":"Lime Park (a.k.a. Lime Creek)","total":55,"trad":0},{"boulder":14,"lat":39.6429,"lon":-106.379,"sport":0,"title":"Misc Bouldering","total":14,"trad":0},{"boulder":0,"lat":39.50136,"lon":-106.37295,"sport":4,"title":"Roof Rock","total":7,"trad":2},{"boulder":10,"lat":39.4771,"lon":-106.3681,"sport":0,"title":"The Aircraft Carrier","total":10,"trad":0},{"boulder":24,"lat":39.5027,"lon":-106.374,"sport":0,"title":"The Klettergarden","total":24,"trad":0},{"boulder":30,"lat":39.713,"lon":-106.6973,"sport":15,"title":"Wolcott Crags and Boulders","total":55,"trad":10},{"boulder":0,"lat":39.7603,"lon":-105.683,"sport":3,"title":"Al Cap","total":3,"trad":0},{"boulder":0,"lat":39.7603,"lon":-105.683,"sport":6,"title":"Beaver Beach","total":6,"trad":0},{"boulder":0,"lat":39.7603,"lon":-105.683,"sport":1,"title":"Compensation Crag","total":1,"trad":0},{"boulder":0,"lat":39.7603,"lon":-105.683,"sport":3,"title":"East Buttress","total":3,"trad":1},{"boulder":0,"lat":39.7603,"lon":-105.683,"sport":0,"title":"Easter Island Pinnacle","total":3,"trad":1},{"boulder":0,"lat":39.7603,"lon":-105.683,"sport":18,"title":"Goat Rock","total":18,"trad":1},{"boulder":0,"lat":39.7603,"lon":-105.683,"sport":0,"title":"Junction Boulder","total":0,"trad":0},{"boulder":0,"lat":39.7603,"lon":-105.683,"sport":2,"title":"Junction Rock","total":2,"trad":0},{"boulder":0,"lat":39.7603,"lon":-105.683,"sport":0,"title":"North-East Boulders","total":0,"trad":0},{"boulder":0,"lat":39.7603,"lon":-105.683,"sport":13,"title":"Ra","total":13,"trad":1},{"boulder":0,"lat":39.7603,"lon":-105.683,"sport":0,"title":"Sky Pillar","total":0,"trad":0},{"boulder":0,"lat":39.768,"lon":-105.7441,"sport":3,"title":"The Eyrie Sector","total":3,"trad":1},{"boulder":0,"lat":39.7603,"lon":-105.683,"sport":14,"title":"The Halidome","total":14,"trad":7},{"boulder":0,"lat":39.7603,"lon":-105.683,"sport":4,"title":"The Lair","total":4,"trad":1},{"boulder":0,"lat":39.7603,"lon":-105.683,"sport":1,"title":"Wrong Block","total":1,"trad":0},{"boulder":1,"lat":40.35207,"lon":-105.56496,"sport":1,"title":"Best Summer Ever! Boulder","total":1,"trad":1},{"boulder":12,"lat":40.42152,"lon":-105.22604,"sport":239,"title":"Big Thompson Canyon","total":429,"trad":218},{"boulder":4,"lat":40.39755,"lon":-105.51766,"sport":1,"title":"Box Prarie Boulders and Climbs-Dragon Scales Rock","total":11,"trad":9},{"boulder":18,"lat":40.29,"lon":-105.5457,"sport":171,"title":"CO Hwy 7 & Tributaries","total":273,"trad":112},{"boulder":0,"lat":40.39755,"lon":-105.51766,"sport":6,"title":"Cottontail Crag","total":6,"trad":3},{"boulder":0,"lat":40.379,"lon":-105.5892,"sport":0,"title":"Deer Mountain South Side","total":3,"trad":3},{"boulder":0,"lat":40.4166,"lon":-105.4782,"sport":4,"title":"Devil's Gulch and Dry Gulch Roads","total":47,"trad":40},{"boulder":0,"lat":40.38431,"lon":-105.54589,"sport":5,"title":"Fall River Road (US 34 West)","total":30,"trad":27},{"boulder":0,"lat":40.39755,"lon":-105.51766,"sport":0,"title":"Fish Creek Road\/Hermit Park","total":0,"trad":0},{"boulder":13,"lat":40.34338,"lon":-105.5793,"sport":0,"title":"Friendship Boulders","total":13,"trad":0},{"boulder":1,"lat":40.2505,"lon":-105.8166,"sport":0,"title":"Grand Lake","total":1,"trad":0},{"boulder":1,"lat":40.39755,"lon":-105.51766,"sport":0,"title":"High Drive Boulders","total":1,"trad":0},{"boulder":21,"lat":40.4032,"lon":-105.5182,"sport":27,"title":"Lumpy Ridge","total":391,"trad":348},{"boulder":10,"lat":40.3841,"lon":-105.5495,"sport":0,"title":"Nicky's Boulders","total":10,"trad":0},{"boulder":0,"lat":40.27717,"lon":-105.36007,"sport":0,"title":"US 36 (between Estes Park & Lyons)","total":0,"trad":0},{"boulder":0,"lat":40.39755,"lon":-105.51766,"sport":4,"title":"White Pines West","total":6,"trad":2},{"boulder":28,"lat":40.5658,"lon":-105.1878,"sport":13,"title":"Arthur's Rock","total":47,"trad":8},{"boulder":9,"lat":40.5686,"lon":-105.077,"sport":0,"title":"Biglandia","total":9,"trad":0},{"boulder":115,"lat":40.32032,"lon":-105.2139,"sport":0,"title":"Carter Lake","total":115,"trad":0},{"boulder":2,"lat":40.5731,"lon":-105.0891,"sport":0,"title":"CSU campus","total":2,"trad":0},{"boulder":0,"lat":40.5398,"lon":-105.1974,"sport":0,"title":"Horsetooth Mountain","total":6,"trad":6},{"boulder":140,"lat":40.57812,"lon":-105.16399,"sport":5,"title":"Horsetooth Reservoir","total":184,"trad":32},{"boulder":81,"lat":40.69262,"lon":-105.37843,"sport":236,"title":"Poudre Canyon","total":408,"trad":109},{"boulder":0,"lat":40.80154,"lon":-105.59009,"sport":1,"title":"Red Feather Lakes","total":2,"trad":1},{"boulder":0,"lat":40.9565,"lon":-105.3528,"sport":0,"title":"Virginia Dale Area","total":1,"trad":1},{"boulder":0,"lat":39.3664,"lon":-106.1867,"sport":8,"title":"Cecilville Slab aka Cecil Rock","total":8,"trad":0},{"boulder":0,"lat":39.30259,"lon":-106.24352,"sport":0,"title":"Hidden Wall","total":1,"trad":1},{"boulder":18,"lat":39.64846,"lon":-107.52735,"sport":0,"title":"East Elk Creek","total":18,"trad":0},{"boulder":8,"lat":39.57474,"lon":-107.22249,"sport":128,"title":"Glenwood Canyon","total":184,"trad":65},{"boulder":0,"lat":39.67763,"lon":-107.56932,"sport":67,"title":"Main Elk Creek","total":69,"trad":7},{"boulder":0,"lat":39.5477,"lon":-107.325,"sport":0,"title":"South Canyon","total":1,"trad":1},{"boulder":2,"lat":39.7525,"lon":-105.226,"sport":0,"title":"Beaverbrook Trail Boulders","total":2,"trad":0},{"boulder":88,"lat":39.75377,"lon":-105.24013,"sport":641,"title":"Clear Creek Canyon","total":831,"trad":132},{"boulder":0,"lat":39.7525,"lon":-105.226,"sport":1,"title":"East Bluffs of the East Quarry (The Wharf)","total":1,"trad":0},{"boulder":0,"lat":39.83694,"lon":-105.42453,"sport":43,"title":"Golden Gate Canyon SP","total":79,"trad":37},{"boulder":0,"lat":39.749,"lon":-105.2426,"sport":3,"title":"Lookout Mountain Crag","total":10,"trad":5},{"boulder":1,"lat":39.7356,"lon":-105.2568,"sport":5,"title":"Lover's Leap on Beaver Brook","total":10,"trad":3},{"boulder":5,"lat":39.7684,"lon":-105.218,"sport":184,"title":"North Table Mountain\/Golden Cliffs","total":358,"trad":170},{"boulder":0,"lat":39.85292,"lon":-105.27999,"sport":3,"title":"Ralston Buttes","total":3,"trad":1},{"boulder":0,"lat":39.77286,"lon":-105.20459,"sport":22,"title":"The East Quarry","total":49,"trad":26},{"boulder":9,"lat":39.77208,"lon":-105.20542,"sport":7,"title":"The Quarry Wall","total":32,"trad":18},{"boulder":0,"lat":39.74395,"lon":-105.2421,"sport":14,"title":"Tiers of Zion","total":20,"trad":6},{"boulder":3,"lat":39.82979,"lon":-105.27716,"sport":0,"title":"White Ranch","total":3,"trad":0},{"boulder":3,"lat":39.0805,"lon":-108.522,"sport":10,"title":"Bang's Canyon","total":13,"trad":0},{"boulder":3,"lat":39.25582,"lon":-108.54357,"sport":0,"title":"Bookcliffs","total":3,"trad":0},{"boulder":28,"lat":39.0496,"lon":-108.61178,"sport":1,"title":"Bullet Hole Boulder Area","total":38,"trad":3},{"boulder":12,"lat":39.1016,"lon":-108.7346,"sport":7,"title":"Colorado National Monument","total":173,"trad":153},{"boulder":32,"lat":39.2323,"lon":-108.273,"sport":0,"title":"De Beque Canyon","total":35,"trad":3},{"boulder":60,"lat":39.05041,"lon":-108.60699,"sport":0,"title":"Dynamite Shacks","total":61,"trad":0},{"boulder":0,"lat":38.68026,"lon":-108.31231,"sport":0,"title":"Escalante Canyon","total":71,"trad":71},{"boulder":0,"lat":39.0261,"lon":-108.1732,"sport":37,"title":"Grand Mesa","total":82,"trad":58},{"boulder":11,"lat":39.0347,"lon":-108.6074,"sport":0,"title":"Holy Cross Boulders","total":12,"trad":0},{"boulder":4,"lat":39.13986,"lon":-108.75597,"sport":0,"title":"McInnis Canyon Bouldering","total":4,"trad":0},{"boulder":0,"lat":39.0805,"lon":-108.522,"sport":0,"title":"McInnis Canyons","total":7,"trad":4},{"boulder":3,"lat":39.1066,"lon":-108.343,"sport":0,"title":"Palisade","total":17,"trad":14},{"boulder":0,"lat":39.0805,"lon":-108.522,"sport":0,"title":"Rattlesnake Canyon","total":1,"trad":1},{"boulder":69,"lat":39.0754,"lon":-108.6481,"sport":0,"title":"Riggs' Hill","total":69,"trad":0},{"boulder":0,"lat":39.0805,"lon":-108.522,"sport":2,"title":"Rough Canyon","total":11,"trad":11},{"boulder":17,"lat":39.058,"lon":-108.6448,"sport":0,"title":"South Camp","total":17,"trad":0},{"boulder":12,"lat":39.0401,"lon":-108.6025,"sport":0,"title":"Tabeguache Boulders","total":12,"trad":0},{"boulder":861,"lat":38.818,"lon":-108.6012,"sport":146,"title":"Unaweep Canyon","total":1213,"trad":286},{"boulder":4,"lat":38.57701,"lon":-107.73208,"sport":0,"title":"Black Canyon of the Gunnison","total":110,"trad":107},{"boulder":0,"lat":38.5448,"lon":-106.928,"sport":1,"title":"Blue Mesa Inlet","total":3,"trad":1},{"boulder":1,"lat":38.5444,"lon":-106.9267,"sport":0,"title":"Buildering","total":1,"trad":0},{"boulder":0,"lat":38.5448,"lon":-106.928,"sport":14,"title":"Cement Creek","total":16,"trad":2},{"boulder":0,"lat":38.5448,"lon":-106.928,"sport":8,"title":"Gate View Canyon","total":18,"trad":10},{"boulder":0,"lat":38.01232,"lon":-107.44616,"sport":26,"title":"God's Crag","total":26,"trad":1},{"boulder":99,"lat":38.49712,"lon":-106.94757,"sport":38,"title":"Hartman Rocks","total":161,"trad":25},{"boulder":0,"lat":38.5448,"lon":-106.928,"sport":1,"title":"Hwy 92 Cliff Band","total":1,"trad":1},{"boulder":12,"lat":38.63733,"lon":-106.87139,"sport":0,"title":"Lost Canyon","total":12,"trad":1},{"boulder":17,"lat":38.5448,"lon":-106.928,"sport":0,"title":"Real Lost Canyon","total":17,"trad":0},{"boulder":0,"lat":38.756,"lon":-106.7702,"sport":5,"title":"Spring Creek","total":18,"trad":14},{"boulder":60,"lat":38.72652,"lon":-106.76942,"sport":23,"title":"Taylor Canyon","total":133,"trad":51},{"boulder":0,"lat":38.5448,"lon":-106.928,"sport":0,"title":"The 89 Wall","total":1,"trad":1},{"boulder":0,"lat":38.5448,"lon":-106.928,"sport":15,"title":"The Point, Powderhorn, Colorado (AKA Indian Creek)","total":15,"trad":0},{"boulder":1,"lat":38.5483,"lon":-106.9181,"sport":0,"title":"Western State Campus","total":1,"trad":0},{"boulder":10,"lat":38.5448,"lon":-106.928,"sport":0,"title":"Willow Creek","total":10,"trad":0},{"boulder":0,"lat":39.12042,"lon":-106.70159,"sport":13,"title":"Classy Cliff Area","total":19,"trad":7},{"boulder":3,"lat":39.12042,"lon":-106.70159,"sport":2,"title":"Difficult Campground ","total":7,"trad":2},{"boulder":0,"lat":39.12042,"lon":-106.70159,"sport":3,"title":"Eyebrow","total":3,"trad":0},{"boulder":10,"lat":39.1198,"lon":-106.69987,"sport":23,"title":"Grotto Walls Area","total":45,"trad":16},{"boulder":24,"lat":39.12042,"lon":-106.70159,"sport":18,"title":"Grottos Day Use Area","total":50,"trad":11},{"boulder":4,"lat":39.12183,"lon":-106.71644,"sport":0,"title":"Hernando's Hideaway","total":4,"trad":0},{"boulder":4,"lat":39.12042,"lon":-106.70159,"sport":0,"title":"ICBJ Boulder","total":4,"trad":0},{"boulder":5,"lat":39.12042,"lon":-106.70159,"sport":0,"title":"Ivory Field","total":5,"trad":0},{"boulder":4,"lat":39.11958,"lon":-106.72196,"sport":0,"title":"Jaws Boulder","total":4,"trad":0},{"boulder":43,"lat":39.11649,"lon":-106.69374,"sport":25,"title":"Lincoln Creek","total":95,"trad":37},{"boulder":0,"lat":39.1199,"lon":-106.5808,"sport":0,"title":"Lost Man Loop Boulders","total":0,"trad":0},{"boulder":1,"lat":39.0726,"lon":-106.4513,"sport":63,"title":"Monitor Rock","total":71,"trad":26},{"boulder":6,"lat":39.12042,"lon":-106.70159,"sport":0,"title":"North Boulders","total":6,"trad":0},{"boulder":0,"lat":39.12,"lon":-106.6977,"sport":39,"title":"Outrageous Overhangs Area","total":41,"trad":3},{"boulder":0,"lat":39.12042,"lon":-106.70159,"sport":4,"title":"Pass Walls","total":13,"trad":9},{"boulder":5,"lat":39.11967,"lon":-106.72205,"sport":0,"title":"Piranha Boulder","total":5,"trad":0},{"boulder":0,"lat":39.12042,"lon":-106.70159,"sport":9,"title":"Pooh Corner Area","total":12,"trad":3},{"boulder":0,"lat":39.12042,"lon":-106.70159,"sport":5,"title":"Powerline","total":5,"trad":0},{"boulder":0,"lat":39.12472,"lon":-106.67989,"sport":36,"title":"Ptarmigan Creek Area","total":38,"trad":1},{"boulder":4,"lat":39.1172,"lon":-106.53776,"sport":0,"title":"South Boulders ","total":4,"trad":0},{"boulder":0,"lat":39.12122,"lon":-106.71378,"sport":3,"title":"The Overlook","total":5,"trad":2},{"boulder":0,"lat":39.10483,"lon":-106.55063,"sport":2,"title":"Treeline Dome","total":2,"trad":0},{"boulder":0,"lat":39.12042,"lon":-106.70159,"sport":1,"title":"Turkey Rock Area","total":3,"trad":2},{"boulder":0,"lat":39.12042,"lon":-106.70159,"sport":11,"title":"Twin Lakes Area","total":11,"trad":0},{"boulder":39,"lat":39.12042,"lon":-106.70159,"sport":34,"title":"Upper Boulderfield Area","total":74,"trad":1},{"boulder":1,"lat":39.123,"lon":-106.725,"sport":0,"title":"Watchtower Crag","total":3,"trad":0},{"boulder":0,"lat":39.12042,"lon":-106.70159,"sport":1,"title":"Weller Slab","total":7,"trad":6},{"boulder":1,"lat":39.12042,"lon":-106.70159,"sport":0,"title":"Whirlpool Rock","total":5,"trad":3},{"boulder":0,"lat":39.12992,"lon":-106.67447,"sport":0,"title":"Wild Ridge","total":1,"trad":1},{"boulder":14,"lat":39.12042,"lon":-106.70159,"sport":8,"title":"Wild Rock Area","total":24,"trad":1},{"boulder":0,"lat":39.6071,"lon":-105.9196,"sport":1,"title":"Alpenglow Satellite Wall","total":1,"trad":0},{"boulder":1,"lat":39.60924,"lon":-105.91895,"sport":25,"title":"Haus Rock","total":26,"trad":2},{"boulder":24,"lat":39.6042,"lon":-105.9481,"sport":3,"title":"Hummingbird Boulders","total":28,"trad":1},{"boulder":0,"lat":39.6042,"lon":-105.9481,"sport":1,"title":"Morning Glory Wall","total":3,"trad":2},{"boulder":0,"lat":39.6042,"lon":-105.9481,"sport":2,"title":"Porcupine Rock","total":2,"trad":1},{"boulder":5,"lat":39.6042,"lon":-105.9481,"sport":0,"title":"Swan Mountain Road","total":7,"trad":0},{"boulder":0,"lat":39.6042,"lon":-105.9481,"sport":6,"title":"The Alpenglow Wall","total":6,"trad":0},{"boulder":0,"lat":39.6042,"lon":-105.9481,"sport":2,"title":"Zuma Rock","total":4,"trad":0},{"boulder":19,"lat":40.129,"lon":-105.52,"sport":0,"title":"Camp Dick","total":19,"trad":0},{"boulder":0,"lat":40.2229,"lon":-105.27,"sport":0,"title":"Rabbit Mountain","total":0,"trad":0},{"boulder":41,"lat":40.15996,"lon":-105.36613,"sport":167,"title":"St. Vrain Canyons","total":434,"trad":291},{"boulder":0,"lat":40.24207,"lon":-105.28232,"sport":0,"title":"Steamboat Mountain","total":1,"trad":1},{"boulder":16,"lat":40.2229,"lon":-105.27,"sport":0,"title":"The Lion's Den","total":16,"trad":0},{"boulder":327,"lat":39.6243,"lon":-105.3463,"sport":0,"title":"Alderfer\/Three Sisters Park","total":336,"trad":6},{"boulder":0,"lat":39.6548,"lon":-105.195,"sport":0,"title":"Corwina Park Boulders","total":0,"trad":0},{"boulder":0,"lat":39.54452,"lon":-105.16081,"sport":0,"title":"Deer Creek Canyon Boulder","total":0,"trad":0},{"boulder":6,"lat":39.6548,"lon":-105.195,"sport":4,"title":"Deer Creek Crag","total":12,"trad":0},{"boulder":0,"lat":39.6334,"lon":-105.3714,"sport":0,"title":"Elephant Butte","total":0,"trad":0},{"boulder":0,"lat":39.6515,"lon":-105.3661,"sport":0,"title":"Elk Meadow Overhang","total":0,"trad":0},{"boulder":12,"lat":39.6548,"lon":-105.195,"sport":0,"title":"Fireblack Boulder","total":12,"trad":0},{"boulder":0,"lat":39.6696,"lon":-105.5758,"sport":9,"title":"Juniper Pass","total":11,"trad":5},{"boulder":0,"lat":39.616,"lon":-105.214,"sport":1,"title":"Lover's Leap","total":10,"trad":10},{"boulder":6,"lat":39.6845,"lon":-105.1802,"sport":0,"title":"Matt Damon on the Side of the Road Boulder","total":6,"trad":0},{"boulder":28,"lat":39.69054,"lon":-105.20925,"sport":0,"title":"Matthews-Winters Park","total":28,"trad":0},{"boulder":0,"lat":39.5697,"lon":-105.377,"sport":0,"title":"Maxwell Falls","total":0,"trad":0},{"boulder":143,"lat":39.65216,"lon":-105.18539,"sport":0,"title":"Morrison Boulders","total":143,"trad":0},{"boulder":0,"lat":39.6531,"lon":-105.1878,"sport":3,"title":"Morrison Routes","total":12,"trad":7},{"boulder":0,"lat":39.6548,"lon":-105.195,"sport":0,"title":"Mount Morrison","total":5,"trad":5},{"boulder":0,"lat":39.6548,"lon":-105.195,"sport":0,"title":"Ocelot Cliffs","total":0,"trad":0},{"boulder":2,"lat":39.6548,"lon":-105.195,"sport":0,"title":"Pyramid Boulder","total":2,"trad":0},{"boulder":0,"lat":39.6548,"lon":-105.195,"sport":0,"title":"The Bear Creek Cave","total":1,"trad":1},{"boulder":0,"lat":39.54217,"lon":-105.17232,"sport":5,"title":"The Urban Alpine Crag","total":6,"trad":0},{"boulder":0,"lat":38.09382,"lon":-108.805,"sport":0,"title":"16Z","total":0,"trad":0},{"boulder":0,"lat":38.2198,"lon":-108.5675,"sport":0,"title":"Atomic Energy Bouldering","total":0,"trad":0},{"boulder":0,"lat":38.2198,"lon":-108.5675,"sport":2,"title":"Atomic Energy Crag","total":5,"trad":3},{"boulder":0,"lat":38.1329,"lon":-108.8745,"sport":8,"title":"Big Gypsum - Dolores","total":18,"trad":10},{"boulder":0,"lat":38.2198,"lon":-108.5675,"sport":0,"title":"Carpenter Ridge - Paradise Wall","total":3,"trad":3},{"boulder":9,"lat":38.2162,"lon":-108.5673,"sport":0,"title":"Ray Motel Boulders","total":9,"trad":0},{"boulder":0,"lat":38.27075,"lon":-108.72217,"sport":20,"title":"Red Rocks","total":20,"trad":2},{"boulder":0,"lat":38.3682,"lon":-108.8154,"sport":7,"title":"Sunshine Wall (River Road area)","total":7,"trad":4},{"boulder":0,"lat":38.01584,"lon":-107.67129,"sport":3,"title":"Camp Bird Mine Rd\/Mountain Rescue Cache Crag","total":6,"trad":5},{"boulder":0,"lat":38.1787,"lon":-107.7619,"sport":2,"title":"Colby's Corner (Ridgway)","total":2,"trad":0},{"boulder":0,"lat":38.0231,"lon":-107.672,"sport":1,"title":"Engineer Pass Crag","total":1,"trad":0},{"boulder":0,"lat":38.0231,"lon":-107.672,"sport":2,"title":"Le Petit Verdon","total":2,"trad":0},{"boulder":0,"lat":38.0436,"lon":-107.6802,"sport":17,"title":"Ouray Rotary Park-Rink Wall","total":17,"trad":0},{"boulder":0,"lat":38.0138,"lon":-107.6771,"sport":28,"title":"Overlook Cliff","total":28,"trad":0},{"boulder":0,"lat":38.0183,"lon":-107.68,"sport":6,"title":"Randall's Badger Sanctuary aka Spider Den","total":6,"trad":0},{"boulder":0,"lat":38.1141,"lon":-107.7179,"sport":7,"title":"Ridgway Dike Wall","total":7,"trad":0},{"boulder":1,"lat":38.2126,"lon":-107.7334,"sport":0,"title":"Ridgway State Park","total":1,"trad":0},{"boulder":0,"lat":38.02222,"lon":-107.67927,"sport":0,"title":"Sandias","total":1,"trad":1},{"boulder":0,"lat":37.9949,"lon":-107.6562,"sport":1,"title":"Slab of Despair","total":3,"trad":1},{"boulder":0,"lat":38.0231,"lon":-107.672,"sport":11,"title":"Technicolor Wall aka Techno Crag","total":11,"trad":1},{"boulder":0,"lat":37.9768,"lon":-107.6588,"sport":4,"title":"The Misfits Wall","total":4,"trad":0},{"boulder":0,"lat":38.0231,"lon":-107.672,"sport":49,"title":"The Pool Wall","total":52,"trad":6},{"boulder":0,"lat":37.9825,"lon":-107.6449,"sport":5,"title":"The Secret Stash","total":5,"trad":2},{"boulder":0,"lat":38.0231,"lon":-107.672,"sport":8,"title":"Waterfall Wall","total":9,"trad":5},{"boulder":4,"lat":37.2675,"lon":-107.0151,"sport":0,"title":"Berry Boulder","total":4,"trad":0},{"boulder":0,"lat":37.26254,"lon":-106.75706,"sport":6,"title":"Blanco Basin Crags","total":8,"trad":6},{"boulder":0,"lat":37.39035,"lon":-106.84308,"sport":0,"title":"East Fork Pinnacles","total":0,"trad":0},{"boulder":21,"lat":37.2675,"lon":-107.0151,"sport":35,"title":"Piedra River","total":66,"trad":7},{"boulder":0,"lat":37.47568,"lon":-106.84652,"sport":0,"title":"The Pillars","total":6,"trad":6},{"boulder":2,"lat":37.2675,"lon":-107.0151,"sport":0,"title":"The Runaways","total":2,"trad":0},{"boulder":0,"lat":37.05225,"lon":-107.1998,"sport":7,"title":"Trujillo","total":8,"trad":0},{"boulder":0,"lat":37.1248,"lon":-106.7909,"sport":1,"title":"V-Mountain aka V Rock","total":7,"trad":6},{"boulder":11,"lat":37.2675,"lon":-107.0151,"sport":0,"title":"West Fork","total":11,"trad":0},{"boulder":0,"lat":39.5356,"lon":-107.783,"sport":6,"title":"Rifle Arch","total":7,"trad":1},{"boulder":0,"lat":39.7159,"lon":-107.6912,"sport":370,"title":"Rifle Mountain Park","total":371,"trad":1},{"boulder":8,"lat":37.6947,"lon":-106.348,"sport":0,"title":"Alamosa Canyon","total":8,"trad":0},{"boulder":0,"lat":37.55983,"lon":-106.77372,"sport":11,"title":"Big Meadows","total":16,"trad":5},{"boulder":1,"lat":37.6947,"lon":-106.348,"sport":0,"title":"Breakfast Boulders","total":1,"trad":0},{"boulder":0,"lat":37.6947,"lon":-106.348,"sport":1,"title":"La Garita Creek","total":1,"trad":0},{"boulder":0,"lat":37.18961,"lon":-105.80328,"sport":6,"title":"Manassa","total":6,"trad":0},{"boulder":1,"lat":37.8429,"lon":-106.2847,"sport":118,"title":"Penitente Canyon","total":128,"trad":17},{"boulder":4,"lat":37.6947,"lon":-106.348,"sport":31,"title":"Rock Garden","total":36,"trad":1},{"boulder":0,"lat":37.6947,"lon":-106.348,"sport":3,"title":"Sidewinder Canyon","total":3,"trad":0},{"boulder":2,"lat":37.6947,"lon":-106.348,"sport":10,"title":"The Pharcyde","total":12,"trad":0},{"boulder":2,"lat":37.64002,"lon":-106.29927,"sport":1,"title":"The Quarry","total":3,"trad":0},{"boulder":1,"lat":37.6947,"lon":-106.348,"sport":23,"title":"Witches' Canyon","total":26,"trad":3},{"boulder":0,"lat":37.8065,"lon":-107.6701,"sport":14,"title":"Cunningham Gulch","total":14,"trad":0},{"boulder":0,"lat":37.8065,"lon":-107.6701,"sport":6,"title":"Eureka area","total":6,"trad":1},{"boulder":0,"lat":37.8065,"lon":-107.6701,"sport":8,"title":"South Mineral Creek","total":8,"trad":0},{"boulder":0,"lat":37.8065,"lon":-107.6701,"sport":11,"title":"The Stripe","total":11,"trad":0},{"boulder":0,"lat":37.8065,"lon":-107.6701,"sport":1,"title":"Trainrobber Wall","total":1,"trad":0},{"boulder":0,"lat":39.1314,"lon":-105.32229,"sport":2,"title":"Big Rock Candy Mountain","total":6,"trad":6},{"boulder":26,"lat":39.37837,"lon":-105.26026,"sport":12,"title":"Buffalo Creek","total":121,"trad":88},{"boulder":15,"lat":39.3651,"lon":-105.38488,"sport":7,"title":"Castle View Crags & Boulders","total":28,"trad":11},{"boulder":0,"lat":39.413,"lon":-105.2673,"sport":25,"title":"Cathedral Spires Area","total":114,"trad":105},{"boulder":4,"lat":39.4171,"lon":-105.469,"sport":0,"title":"Daniels Park","total":4,"trad":0},{"boulder":0,"lat":39.25424,"lon":-105.22677,"sport":44,"title":"Deckers","total":72,"trad":24},{"boulder":2,"lat":39.2603,"lon":-105.1011,"sport":249,"title":"Devil's Head","total":284,"trad":48},{"boulder":22,"lat":38.9344,"lon":-105.4075,"sport":123,"title":"Elevenmile Canyon","total":215,"trad":85},{"boulder":5,"lat":39.4171,"lon":-105.469,"sport":0,"title":"Elevenmile Reservoir","total":5,"trad":0},{"boulder":0,"lat":39.18868,"lon":-105.33495,"sport":22,"title":"Goose Creek\/Molly Gulch Campground","total":67,"trad":49},{"boulder":0,"lat":39.3374,"lon":-105.1524,"sport":1,"title":"Noddle Heads","total":8,"trad":7},{"boulder":0,"lat":39.4171,"lon":-105.469,"sport":0,"title":"North Turkey Creek Crags","total":0,"trad":0},{"boulder":2,"lat":39.41587,"lon":-105.32132,"sport":21,"title":"Pine Area","total":52,"trad":36},{"boulder":3,"lat":39.07953,"lon":-105.09374,"sport":0,"title":"Rainbow Falls Bouldering (The Brushoffs)","total":3,"trad":0},{"boulder":0,"lat":39.37754,"lon":-105.09349,"sport":23,"title":"Rampart Range Road","total":55,"trad":35},{"boulder":2,"lat":39.1227,"lon":-105.0173,"sport":0,"title":"Saylor Park Boulders","total":2,"trad":0},{"boulder":0,"lat":39.4055,"lon":-105.3682,"sport":0,"title":"Slacker Dome Area","total":1,"trad":1},{"boulder":1,"lat":39.5072,"lon":-105.3918,"sport":22,"title":"Staunton State Park","total":60,"trad":39},{"boulder":0,"lat":39.1002,"lon":-105.52374,"sport":1,"title":"Terryall State Park? Valley of Chickens?","total":3,"trad":2},{"boulder":0,"lat":39.1516,"lon":-105.3007,"sport":0,"title":"The Turret","total":3,"trad":3},{"boulder":0,"lat":39.1354,"lon":-105.3294,"sport":0,"title":"Tick Dome","total":1,"trad":1},{"boulder":1,"lat":39.1144,"lon":-105.2375,"sport":6,"title":"Turkey Rocks","total":101,"trad":95},{"boulder":45,"lat":39.15255,"lon":-105.16307,"sport":29,"title":"West Creek","total":192,"trad":121},{"boulder":1,"lat":39.29247,"lon":-105.45664,"sport":3,"title":"Wigwam Creek\/Lost Creek Wilderness","total":34,"trad":33},{"boulder":9,"lat":39.0217,"lon":-105.0185,"sport":0,"title":"Woodland Park Boulders (The Corridor)","total":9,"trad":0},{"boulder":1,"lat":40.49102,"lon":-106.80473,"sport":0,"title":"Elk River Boulders","total":1,"trad":0},{"boulder":0,"lat":40.36263,"lon":-106.63375,"sport":8,"title":"Muddy Creek","total":11,"trad":3},{"boulder":4,"lat":40.49102,"lon":-106.80473,"sport":24,"title":"North of Town","total":42,"trad":17},{"boulder":2,"lat":40.8493,"lon":-107.202,"sport":0,"title":"Slater Creek Problems","total":2,"trad":0},{"boulder":0,"lat":40.49102,"lon":-106.80473,"sport":14,"title":"South of Town","total":21,"trad":10},{"boulder":0,"lat":40.49102,"lon":-106.80473,"sport":2,"title":"Town Area","total":13,"trad":1},{"boulder":0,"lat":37.9392,"lon":-107.8163,"sport":0,"title":"Ames Wall","total":1,"trad":1},{"boulder":0,"lat":37.9392,"lon":-107.8163,"sport":0,"title":"Bilk Creek Wall","total":0,"trad":0},{"boulder":0,"lat":38.16663,"lon":-108.23833,"sport":15,"title":"Clay Creek Crag","total":16,"trad":3},{"boulder":0,"lat":38.1137,"lon":-108.1852,"sport":0,"title":"Gold Wall","total":0,"trad":0},{"boulder":0,"lat":37.9392,"lon":-107.8163,"sport":0,"title":"Hamilton","total":1,"trad":0},{"boulder":5,"lat":37.9392,"lon":-107.8163,"sport":0,"title":"Ilium Boulders","total":5,"trad":0},{"boulder":0,"lat":38.07706,"lon":-107.61041,"sport":15,"title":"Mill Creek Wall","total":19,"trad":4},{"boulder":0,"lat":37.856,"lon":-107.8312,"sport":22,"title":"Ophir","total":82,"trad":65},{"boulder":0,"lat":37.92354,"lon":-107.76635,"sport":11,"title":"Pipeline Wall","total":12,"trad":1},{"boulder":2,"lat":37.9392,"lon":-107.8163,"sport":0,"title":"Society Turn","total":2,"trad":0},{"boulder":0,"lat":37.9377,"lon":-107.8119,"sport":0,"title":"Telluride Edge","total":0,"trad":0},{"boulder":0,"lat":37.9392,"lon":-107.8163,"sport":0,"title":"The Cove","total":0,"trad":0},{"boulder":0,"lat":37.9199,"lon":-107.7758,"sport":25,"title":"The Falls Walls","total":25,"trad":1},{"boulder":3,"lat":37.9392,"lon":-107.8163,"sport":0,"title":"The Mine Boulders","total":3,"trad":0},{"boulder":0,"lat":37.9392,"lon":-107.8163,"sport":1,"title":"Wasatch Mountain Walls","total":1,"trad":0},{"boulder":11,"lat":38.167,"lon":-105.1927,"sport":0,"title":"Bootlegger's Boulders","total":11,"trad":0},{"boulder":0,"lat":38.167,"lon":-105.1927,"sport":14,"title":"Hardscrabble Pass","total":14,"trad":0},{"boulder":0,"lat":38.167,"lon":-105.1927,"sport":0,"title":"Newlin Creek","total":2,"trad":2},{"boulder":0,"lat":38.31063,"lon":-105.24943,"sport":33,"title":"Oak Creek Canyon","total":42,"trad":20},{"boulder":0,"lat":38.167,"lon":-105.1927,"sport":0,"title":"Royal Gorge","total":1,"trad":1},{"boulder":1,"lat":41.6485,"lon":-72.8328,"sport":17,"title":"Bradley Mountain","total":58,"trad":41},{"boulder":0,"lat":41.55965,"lon":-72.81109,"sport":0,"title":"Cathole Mountain","total":28,"trad":21},{"boulder":0,"lat":41.5569,"lon":-72.8344,"sport":0,"title":"East Peak","total":35,"trad":26},{"boulder":0,"lat":41.6897,"lon":-72.8328,"sport":1,"title":"Pinnacle Rock","total":57,"trad":47},{"boulder":0,"lat":41.6182,"lon":-72.8184,"sport":0,"title":"Ragged Mountain","total":85,"trad":63},{"boulder":0,"lat":41.7007,"lon":-72.8321,"sport":1,"title":"Rattlesnake Mountain","total":59,"trad":50},{"boulder":0,"lat":41.5791,"lon":-72.8361,"sport":0,"title":"West Peak","total":4,"trad":4},{"boulder":10,"lat":41.3641,"lon":-72.5639,"sport":0,"title":"100 Acre Wood","total":10,"trad":0},